station_name,coords,elevation,latitude,longitude,names,admin1,admin2,country
"FORT SCOTT MUNICIPAL, KS US","(37.798431, -94.769381)",279.8,37.83976,-94.7083,Fort Scott,Kansas,Bourbon County,US
"GREENSBORO GREENE CO REGIONAL AIRPORT, GA US","(33.59778, -83.13889)",206.3,33.57568,-83.18238,Greensboro,Georgia,Greene County,US
"DODGE CENTER AIRPORT, MN US","(44.01778, -92.83139)",397.8,44.02802,-92.85464,Dodge Center,Minnesota,Dodge County,US
"MIKE HAXTUN, CO US","(40.7, -103.483333)",1336.24,40.62554,-103.20771,Sterling,Colorado,Logan County,US
"OLD PORT TAMPA, FL US","(27.85, -82.55)",9.0,27.8685,-82.61612,Gandy,Florida,Pinellas County,US
"ABILENE REGIONAL AIRPORT, TX US","(32.41063, -99.68208)",544.8,32.44874,-99.73314,Abilene,Texas,Taylor County,US
"HERITAGE FIELD AIRPORT, PA US","(40.23803, -75.55485)",88.7,40.23093,-75.52212,Limerick,Pennsylvania,Montgomery County,US
"MADERA MUNICIPAL AIRPORT, CA US","(36.98505, -120.11068)",76.6,36.96134,-120.06072,Madera,California,Madera County,US
"DECATUR AIRPORT, IL US","(39.83079, -88.87192)",205.1,39.81198,-88.84757,Long Creek,Illinois,Macon County,US
"CORTEZ MONTEZUMA CO AIRPORT, CO US","(37.30705, -108.62646)",1799.2,37.34888,-108.58593,Cortez,Colorado,Montezuma County,US
"CROSBY MUNICIPAL AIRPORT, ND US","(48.929, -103.297)",594.1,48.9142,-103.29491,Crosby,North Dakota,Divide County,US
"EL DORADO GOODWIN FIELD, AR US","(33.22072, -92.81404)",78.0,33.20763,-92.66627,El Dorado,Arkansas,Union County,US
"SOLDOTNA AIRPORT, AK US","(60.47583, -151.03417)",34.4,60.48778,-151.05833,Soldotna,Alaska,Kenai Peninsula Borough,US
"CLERMONT CO AIRPORT, OH US","(39.07838, -84.21022)",256.9,39.07701,-84.17688,Batavia,Ohio,Clermont County,US
"OCEANSIDE MUNICIPAL AIRPORT, CA US","(33.21946, -117.34962)",9.1,33.22844,-117.37929,Camp Pendleton South,California,San Diego County,US
"LA JUNTA MUNICIPAL AIRPORT, CO US","(38.04948, -103.51335)",1278.7,37.98501,-103.54383,La Junta,Colorado,Otero County,US
"MOUNT CARMEL MUNICIPAL AIRPORT, IL US","(38.60667, -87.72667)",161.2,38.70588,-87.76003,Bridgeport,Illinois,Lawrence County,US
"SOUTH JERSEY REGIONAL AIRPORT, NJ US","(39.94076, -74.84075)",15.2,39.934,-74.891,Mount Laurel,New Jersey,Burlington County,US
"GRANTS MILAN MUNICIPAL AIRPORT, NM US","(35.16528, -107.90222)",1987.3,35.16976,-107.89089,Milan,New Mexico,Cibola County,US
"ALAMEDA, CA US","(37.772, -122.298)",2.0,37.80437,-122.2708,Oakland,California,Alameda County,US
"OAKDALE ALLEN PARISH AIRPORT, LA US","(30.75028, -92.68833)",32.6,30.81603,-92.66042,Oakdale,Louisiana,Allen Parish,US
"THOMAS POINT MD, US","(38.9, -76.44)",0.0,38.94011,-76.49496,Hillsmere Shores,Maryland,Anne Arundel County,US
"SALEM AIRPORT MCNARY FIELD, OR US","(44.90488, -123.00103)",63.4,44.9279,-122.98371,Four Corners,Oregon,Marion County,US
"PORT ALSWORTH 1 SW, AK US","(60.1951, -154.3196)",97.8,59.77667,-151.83139,Anchor Point,Alaska,Kenai Peninsula Borough,US
"POUGHKEEPSIE AIRPORT, NY US","(41.62574, -73.88155)",46.6,41.6062,-73.87291,Myers Corner,New York,Dutchess County,US
"ROANOKE BLACKSBURG REGIONAL AIRPORT, VA US","(37.31719, -79.97369)",346.7,37.34125,-79.9431,Hollins,Virginia,Roanoke County,US
"HUTSON FIELD AIRPORT, ND US","(48.405, -97.371)",251.2,48.41221,-97.41063,Grafton,North Dakota,Walsh County,US
"GREENVILLE MAC CRENSHAW MEMORIAL AIRPORT, AL US","(31.84675, -86.6141)",134.8,31.8296,-86.61775,Greenville,Alabama,Butler County,US
"KOYUK ALFRED ADAMS AIRPORT, AK US","(64.935, -161.155)",33.5,66.89846,-162.59809,Kotzebue,Alaska,Northwest Arctic Borough,US
"CHILLICOTHE AGRI SCIENCE CENTER, MO US","(39.819848, -93.576951)",231.0,39.79529,-93.55244,Chillicothe,Missouri,Livingston County,US
"HOPKINSVILLE CHRISTIAN CO, KY US","(36.856972, -87.455067)",171.9,36.86561,-87.49117,Hopkinsville,Kentucky,Christian County,US
"ST MARY HOSPITAL HELIPORT, MN US","(44.0166666, -92.4833333)",355.0,44.02163,-92.4699,Rochester,Minnesota,Olmsted County,US
"BLAIRSVILLE AIRPORT, GA US","(34.85, -83.9833333)",582.0,34.8762,-83.95824,Blairsville,Georgia,Union County,US
"SITKA, AK US","(57.052, -135.342)",1.0,57.05315,-135.33088,Sitka,Alaska,Sitka City and Borough,US
"GREAT FALLS AIRPORT, MT US","(47.47327, -111.38281)",1117.7,47.50024,-111.30081,Great Falls,Montana,Cascade County,US
"WOODWARD FIELD AIRPORT, SC US","(34.283, -80.567)",92.0,34.24654,-80.60702,Camden,South Carolina,Kershaw County,US
"ALTON ST LOUIS REGIONAL AIRPORT, IL US","(38.88333, -90.05)",165.5,38.90921,-90.04066,Bethalto,Illinois,Madison County,US
"MORGANTOWN MUNICIPAL AIRPORT, WV US","(39.64981, -79.92064)",373.6,39.62953,-79.9559,Morgantown,West Virginia,Monongalia County,US
"PASCAGOULA NOAA LAB, MS US","(30.35, -88.5666666)",0.0,30.36576,-88.55613,Pascagoula,Mississippi,Jackson County,US
"CANE PATCH, FL US","(25.4166666, -80.95)",3.0,25.44789,-80.47922,Florida City,Florida,Miami-Dade County,US
"ATLANTA FULTON CO AIRPORT, GA US","(33.77759, -84.52464)",245.0,33.81872,-84.58243,Mableton,Georgia,Cobb County,US
"NY CITY CENTRAL PARK, NY US","(40.77898, -73.96925)",42.7,40.78343,-73.96625,Manhattan,New York,New York County,US
"SCOTTSDALE MUNICIPAL AIRPORT, AZ US","(33.61234, -111.92317)",436.1,33.53115,-111.94265,Paradise Valley,Arizona,Maricopa County,US
"YOUNGSTOWN WARREN REGIONAL AIRPORT, OH US","(41.25478, -80.67361)",355.6,41.25117,-80.74536,Howland Center,Ohio,Trumbull County,US
"MONTAUK, NY US","(41.05, -71.97)",10.0,41.03594,-71.95451,Montauk,New York,Suffolk County,US
"RUSH CITY REGIONAL AIRPORT, MN US","(45.69778, -92.95278)",281.3,45.68551,-92.96549,Rush City,Minnesota,Chisago County,US
"FRANKFORT CAPITAL CITY AIRPORT, KY US","(38.18463, -84.90393)",236.8,38.20091,-84.87328,Frankfort,Kentucky,Franklin County,US
"CONWAY HORRY CO AIRPORT, SC US","(33.828, -79.122)",10.1,33.836,-79.04781,Conway,South Carolina,Horry County,US
"GUNNISON OIL PLATFORM, TX US","(27.3, -93.533)",224.0,29.30135,-94.7977,Galveston,Texas,Galveston County,US
"MONROE AIRPORT, NC US","(35.01467, -80.62414)",204.4,35.00709,-80.67451,Wesley Chapel,North Carolina,Union County,US
"JACKSONVILLE ALBERT ELLIS AIRPORT, NC US","(34.83333, -77.61667)",29.3,34.89933,-77.54663,Richlands,North Carolina,Onslow County,US
"FRANCIS SCOTT KEY BR, MD US","(39.22, -76.52)",10.0,39.25066,-76.52052,Dundalk,Maryland,Baltimore County,US
"GADSDEN MUNICIPAL AIRPORT, AL US","(33.96667, -86.08333)",173.4,33.95482,-86.04192,Rainbow City,Alabama,Etowah County,US
"REXBURG MADISON CO AIRPORT, ID US","(43.83211, -111.80751)",1480.8,43.82602,-111.78969,Rexburg,Idaho,Madison County,US
"PORT ARANSAS MUSTANG BEACH AIRPORT, TX US","(27.81194, -97.08861)",1.5,27.83392,-97.0611,Port Aransas,Texas,Nueces County,US
"SPRINGFIELD WEATHER SERVICE OFFICE AIRPORT, MO US","(37.23983, -93.38995)",384.7,37.30505,-93.42853,Willard,Missouri,Greene County,US
"THOMAS P STAFFORD AIRPORT, OK US","(35.55, -98.667)",489.2,35.52616,-98.70757,Weatherford,Oklahoma,Custer County,US
"JORDAN AIRPORT, MT US","(47.325928, -106.948724)",801.0,47.32083,-106.91007,Jordan,Montana,Garfield County,US
"EL MONTE EMSU, CA US","(34.08333, -118.03333)",90.2,34.06862,-118.02757,El Monte,California,Los Angeles County,US
"BALD MOUNTAIN COTTONWOOD PASS, CO US","(38.783, -106.217)",2995.3,38.84222,-106.13113,Buena Vista,Colorado,Chaffee County,US
"VIOSCA KNOLL 768 OIL PLATFORM, AL US","(29.233, -87.783)",53.0,30.24604,-87.70082,Gulf Shores,Alabama,Baldwin County,US
"SHEBOYGAN CO MEMORIAL AIRPORT, WI US","(43.7748, -87.84903)",228.9,43.73197,-87.82213,Sheboygan Falls,Wisconsin,Sheboygan County,US
"PORT MANATEE, FL US","(27.63, -82.57)",3.0,27.53587,-82.56121,Memphis,Florida,Manatee County,US
"GATESVILLE MUNICIPAL AIRPORT, TX US","(31.417, -97.8)",276.1,31.43516,-97.74391,Gatesville,Texas,Coryell County,US
"BRANSON AIRPORT, MO US","(36.533, -93.2)",397.2,36.62117,-93.21546,Hollister,Missouri,Taney County,US
"VAN NUYS AIRPORT, CA US","(34.21214, -118.49146)",239.2,34.22834,-118.53675,Northridge,California,Los Angeles County,US
"MERKEL FIELD SYLACAUGA MUNICIPAL, AL US","(33.171837, -86.305539)",173.43,33.18345,-86.26109,Mignon,Alabama,Talladega County,US
"STAUNTON, VA US","(38.26361, -78.89639)",366.1,38.28846,-78.91308,Weyers Cave,Virginia,Augusta County,US
"DELAWARE MUNICIPAL JIM MOORE FIELD AIRPORT, OH US","(40.28, -83.115)",288.0,40.29867,-83.06797,Delaware,Ohio,Delaware County,US
"BROAD RIVER, FL US","(25.4833333, -80.9833333)",3.0,25.44789,-80.47922,Florida City,Florida,Miami-Dade County,US
"STARKE CO AIRPORT, IN US","(41.333, -86.667)",208.2,41.29588,-86.62501,Knox,Indiana,Starke County,US
"LAWRENCE MUNICIPAL AIRPORT, MA US","(42.71249, -71.12558)",41.5,42.6987,-71.13506,North Andover,Massachusetts,Essex County,US
"COAST GUARD SECTOR, AL US","(30.65, -88.05)",10.0,30.69436,-88.04305,Mobile,Alabama,Mobile County,US
"TOMAHAWK REGIONAL AIRPORT, WI US","(45.46917, -89.80556)",452.9,45.47108,-89.72986,Tomahawk,Wisconsin,Lincoln County,US
"ELDRED ROCK, AK US","(58.9666666, -135.2166666)",19.0,59.22859,-135.44411,Haines,Alaska,Haines Borough,US
"CRESCENT CITY MCNAMARA AIRPORT, CA US","(41.78361, -124.23796)",17.0,41.75595,-124.20175,Crescent City,California,Del Norte County,US
"POINT BISHOP, AK US","(58.2, -134.1333333)",5.0,58.30194,-134.41972,Juneau,Alaska,Juneau City and Borough,US
"OSCAR ROY, MT US","(47.3333333, -108.933333)",1086.0,47.06247,-109.42824,Lewistown,Montana,Fergus County,US
"UNALAKLEET FIELD, AK US","(63.88333, -160.8)",5.5,60.79222,-161.75583,Bethel,Alaska,Bethel Census Area,US
"PINAL AIRPARK, AZ US","(32.510624, -111.32789)",576.68,32.43785,-111.31539,Avra Valley,Arizona,Pima County,US
"ALTURAS MUNICIPAL AIRPORT, CA US","(41.48362, -120.5615)",1335.9,41.48711,-120.54246,Alturas,California,Modoc County,US
"CLAXTON EVANS CO AIRPORT, GA US","(32.2, -81.87)",34.1,32.16158,-81.904,Claxton,Georgia,Evans County,US
"TALLULAH VICKSBURG REGIONAL AIRPORT, LA US","(32.34808, -91.02994)",25.2,32.35265,-90.87788,Vicksburg,Mississippi,Warren County,US
"BIG FORK MUNICIPAL AIRPORT, MN US","(47.78278, -93.65)",411.2,47.26356,-93.62022,Cohasset,Minnesota,Itasca County,US
"PHIFER AFLD, WY US","(42.05, -104.9333333)",1455.11,42.05407,-104.95295,Wheatland,Wyoming,Platte County,US
"SAVANNAH HUNTER FIELD, GA US","(32.01667, -81.13333)",17.1,32.08354,-81.09983,Savannah,Georgia,Chatham County,US
"BINGHAMTON GREATER AP, NY US","(42.20678, -75.97993)",485.7,42.11563,-75.95881,Johnson City,New York,Broome County,US
"CLEVELAND CUYAHOGA CO AIRPORT, OH US","(41.56667, -81.48333)",267.9,41.552,-81.47845,Highland Heights,Ohio,Cuyahoga County,US
"LYNCHBURG REGIONAL AIRPORT, VA US","(37.32126, -79.20649)",274.9,37.3207,-79.25753,Timberlake,Virginia,Campbell County,US
"MASON JEWETT FIELD AIRPORT, MI US","(42.56583, -84.43306)",281.0,42.5792,-84.44358,Mason,Michigan,Ingham County,US
"MIDWEST NATIONAL AIR CENTER AIRPORT, MO US","(39.332, -94.31)",237.1,39.36778,-94.36217,Kearney,Missouri,Clay County,US
"NEWPORT NEWS INTERNATIONAL AIRPORT, VA US","(37.13216, -76.49399)",10.9,37.23876,-76.50967,Yorktown,Virginia,York County,US
"FAYETTEVILLE REGIONAL AIRPORT GRANNIS FIELD, NC US","(34.98953, -78.88004)",56.7,35.05266,-78.87836,Fayetteville,North Carolina,Cumberland County,US
"HARRIET ALEXANDER FIELD AIRPORT, CO US","(38.533, -106.05)",2294.2,38.53472,-105.9989,Salida,Colorado,Chaffee County,US
"PITTSBURG SUISUN BAY, CA US","(38.042, -121.887)",10.0,38.02798,-121.88468,Pittsburg,California,Contra Costa County,US
"MARIETTA COBB CO MCCOLLUM FIELD AIRPORT, GA US","(34.01306, -84.59861)",317.0,34.02343,-84.61549,Kennesaw,Georgia,Cobb County,US
"PAULS VALLEY MUNICIPAL AIRPORT, OK US","(34.71083, -97.22306)",295.0,34.74008,-97.22225,Pauls Valley,Oklahoma,Garvin County,US
"SIOUX FALLS 14 NNE, SD US","(43.7346, -96.6222)",485.9,43.71747,-96.50282,Garretson,South Dakota,Minnehaha County,US
"FREEPORT ALBERTUS AIRPORT, IL US","(42.24611, -89.58222)",261.8,42.29669,-89.62123,Freeport,Illinois,Stephenson County,US
"FAITH MUNICIPAL AIRPORT, SD US","(45.032601, -102.01999)",784.0,45.04748,-101.60099,Dupree,South Dakota,Ziebach County,US
"9075014 HARBOR BEACH MI, US","(43.85, -82.64)",179.2,43.84474,-82.65132,Harbor Beach,Michigan,Huron County,US
"ALABASTER SHELBY CO AIRPORT ASOS, AL US","(33.17835, -86.78178)",172.5,33.24428,-86.81638,Alabaster,Alabama,Shelby County,US
"BUCKLAND AIRPORT, AK US","(65.98333, -161.13333)",9.1,66.89846,-162.59809,Kotzebue,Alaska,Northwest Arctic Borough,US
"MCCARRAN INTERNATIONAL AIRPORT, NV US","(36.0719, -115.16343)",662.8,36.09719,-115.14666,Paradise,Nevada,Clark County,US
"SANFORD LEE CO REGIONAL AIRPORT, NC US","(35.58222, -79.10111)",75.3,35.57071,-79.22002,Farmville,North Carolina,Chatham County,US
"SILVER BAY, MN US","(47.27, -91.08)",198.0,47.29436,-91.25739,Silver Bay,Minnesota,Lake County,US
"DUMAS MOORE CO AIRPORT, TX US","(35.85806, -102.01306)",1129.3,35.86559,-101.97324,Dumas,Texas,Moore County,US
"TELLURIDE REGIONAL AIRPORT, CO US","(37.95, -107.9)",2770.9,37.93138,-107.85645,Mountain Village,Colorado,San Miguel County,US
"BEACH AIRPORT, ND US","(46.925, -103.982)",840.0,46.91807,-104.00437,Beach,North Dakota,Golden Valley County,US
"LONG BEACH DAUGHERTY AIRPORT, CA US","(33.81177, -118.14718)",10.2,33.80446,-118.16785,Signal Hill,California,Los Angeles County,US
"EDWARDS AFB NORTH AUXILIARY AIRFIELD, CA US","(34.98833, -117.86472)",695.9,35.01664,-117.83284,North Edwards,California,Kern County,US
"KEENE DILLANT HOPKINS AIRPORT, NH US","(42.9, -72.26667)",146.6,42.8698,-72.28175,Swanzey,New Hampshire,Cheshire County,US
"CAPE HATTERAS BILLY MITCHELL FIELD, NC US","(35.23238, -75.62223)",3.8,35.26768,-75.54237,Buxton,North Carolina,Dare County,US
"WILLIAMSPORT REGIONAL AIRPORT, PA US","(41.24295, -76.92173)",159.8,41.25425,-76.92052,Montoursville,Pennsylvania,Lycoming County,US
"GOODRIDGE 12 NNW, MN US","(48.3055, -95.8744)",350.5,48.11914,-96.18115,Thief River Falls,Minnesota,Pennington County,US
"GALVESTON SCHOLES FIELD, TX US","(29.27036, -94.86421)",1.5,29.30135,-94.7977,Galveston,Texas,Galveston County,US
"BIG DELTA AIRPORT, AK US","(63.99312, -145.72134)",388.1,63.87217,-145.21773,Deltana,Alaska,Southeast Fairbanks Census Area,US
"CLEARWATER BEACH, FL US","(27.97, -82.83)",10.0,27.96585,-82.8001,Clearwater,Florida,Pinellas County,US
"HUNTINGTON TRI STATE AIRPORT, WV US","(38.36531, -82.5548)",251.3,38.39647,-82.55877,Ceredo,West Virginia,Wayne County,US
"HANNIBAL REGIONAL AIRPORT, MO US","(39.72516, -91.44386)",234.7,39.70838,-91.35848,Hannibal,Missouri,Marion County,US
"DURANT EAKER FIELD AIRPORT, OK US","(33.94222, -96.39444)",212.8,33.93454,-96.4286,Calera,Oklahoma,Bryan County,US
"DEXTER B FLORENCE MEMORIAL FIELD AIRPORT, AR US","(34.0998, -93.066)",55.8,34.12093,-93.05378,Arkadelphia,Arkansas,Clark County,US
"DUKE FIELD AAFB, FL US","(30.65, -86.53333)",57.9,30.76213,-86.57051,Crestview,Florida,Okaloosa County,US
"ST JAMES MUNICIPAL AIRPORT, MN US","(43.98611, -94.55778)",325.2,43.98246,-94.62692,Saint James,Minnesota,Watonwan County,US
"QUINHAGAK AIRPORT, AK US","(59.75, -161.8333333)",13.0,60.79222,-161.75583,Bethel,Alaska,Bethel Census Area,US
"MACOMB MUNICIPAL AIRPORT, IL US","(40.52028, -90.65222)",215.5,40.45921,-90.6718,Macomb,Illinois,McDonough County,US
"9063020 BUFFALO NY, US","(42.88, -78.89)",178.3,42.88645,-78.87837,Buffalo,New York,Erie County,US
"GREAT BAY RESERVE, NH US","(43.05, -70.8333333)",3.0,43.0362,-70.83283,Greenland,New Hampshire,Rockingham County,US
"FOXTROT DIX, NE US","(41.3666666, -103.483333)",1452.98,41.23581,-103.663,Kimball,Nebraska,Kimball County,US
"BOZEMAN GALLATIN FIELD AIRPORT, MT US","(45.78759, -111.16152)",1350.7,45.77604,-111.1769,Belgrade,Montana,Gallatin County,US
"INVERNESS AIRPORT, FL US","(28.817, -82.317)",15.2,28.83582,-82.33037,Inverness,Florida,Citrus County,US
"CHOCTAW NAVAL OUTLYING FIELD MILTON, FL US","(30.51195, -86.95406)",34.0,30.44686,-86.90691,Holley,Florida,Santa Rosa County,US
"PINE BLUFF GRIDER FIELD, AR US","(34.17981, -91.93444)",62.1,34.22843,-92.0032,Pine Bluff,Arkansas,Jefferson County,US
"TRACY MUNICIPAL AIRPORT, MN US","(44.24917, -95.60722)",408.4,44.23329,-95.61918,Tracy,Minnesota,Lyon County,US
"LANCASTER, CA US","(34.74121, -118.21255)",712.6,34.69804,-118.13674,Lancaster,California,Los Angeles County,US
"MARMION ISLAND, AK US","(58.198, -134.257)",3.0,58.30194,-134.41972,Juneau,Alaska,Juneau City and Borough,US
"BLACKVILLE 3 W, SC US","(33.355, -81.3279)",96.6,33.35793,-81.27066,Blackville,South Carolina,Barnwell County,US
"DANSVILLE MUNICIPAL AIRPORT, NY US","(42.56985, -77.71426)",195.9,42.5609,-77.69611,Dansville,New York,Livingston County,US
"KEMMERER MUNICIPAL AIRPORT, WY US","(41.82389, -110.55694)",2220.5,41.79245,-110.53767,Kemmerer,Wyoming,Lincoln County,US
"ST INIGOES WEBSTER NAVAL OUTLYING FIELD, MD US","(38.14167, -76.42917)",6.4,38.26679,-76.45384,Lexington Park,Maryland,Saint Mary's County,US
"FAIRCHILD AFB, WA US","(47.63333, -117.65)",750.1,47.61879,-117.64826,Fairchild Air Force Base,Washington,Spokane County,US
"068 BAFFIN BAY POINT OF ROCKS TX, TX US","(27.3, -97.42)",4.0,27.22171,-97.78916,Sarita,Texas,Kenedy County,US
"ELKHART MUNICIPAL AIRPORT, IN US","(41.71667, -85.98333)",237.1,41.68199,-85.97667,Elkhart,Indiana,Elkhart County,US
"HOBART MUNICIPAL AIRPORT, OK US","(34.98908, -99.05282)",473.3,35.0295,-99.09313,Hobart,Oklahoma,Kiowa County,US
"FLORENCE REGIONAL AIRPORT, SC US","(34.18773, -79.73079)",43.0,34.19543,-79.76256,Florence,South Carolina,Florence County,US
"DODGE CITY REGIONAL AIRPORT, KS US","(37.77105, -99.96915)",785.6,37.7528,-100.01708,Dodge City,Kansas,Ford County,US
"MARSHALL BROOKS FIELD AIRPORT, MI US","(42.25111, -84.95556)",286.8,42.27226,-84.96331,Marshall,Michigan,Calhoun County,US
"MEADOW LAKE AIRPORT, CO US","(38.946, -104.57)",2095.2,39.01305,-104.70081,Black Forest,Colorado,El Paso County,US
"CHANUTE MARTIN JOHNSON AIRPORT, KS US","(37.6705, -95.48462)",298.8,37.67921,-95.4572,Chanute,Kansas,Neosho County,US
"MEACHAM, OR US","(45.511788, -118.424647)",1137.0,45.67041,-118.68359,Mission,Oregon,Umatilla County,US
"BELLEVILLE SCOTT AFB, IL US","(38.55, -89.85)",135.0,38.5427,-89.85035,Scott Air Force Base,Illinois,Saint Clair County,US
"ENID WOODRING AIRPORT, OK US","(36.38333, -97.8)",355.7,36.39559,-97.87839,Enid,Oklahoma,Garfield County,US
"WENDELL H FORD AIRPORT, KY US","(37.387361, -83.261611)",382.95,37.24954,-83.19323,Hazard,Kentucky,Perry County,US
"BOONE WATAUGA CO HOSPITAL HELIPORT, NC US","(36.2, -81.65)",910.4,36.21679,-81.67455,Boone,North Carolina,Watauga County,US
"CHEROKEE CO AIRPORT, GA US","(34.317, -84.417)",372.2,34.33815,-84.37659,Ball Ground,Georgia,Cherokee County,US
"OSCAR ANTLER, ND US","(48.82463, -101.282502)",466.34,48.76336,-101.51322,Mohall,North Dakota,Renville County,US
"SITKA AIRPORT, AK US","(57.04746, -135.36703)",6.0,57.05315,-135.33088,Sitka,Alaska,Sitka City and Borough,US
"BLOOMINGTON NORMAL AIRPORT, IL US","(40.48333, -88.95)",263.7,40.4842,-88.99369,Bloomington,Illinois,McLean County,US
"COLUMBUS AFB, MS US","(33.65, -88.45)",66.8,33.64152,-88.45064,Columbus Air Force Base,Mississippi,Lowndes County,US
"OGDEN HINKLEY AIRPORT, UT US","(41.19406, -112.01682)",1356.1,41.17689,-112.00383,Riverdale,Utah,Weber County,US
"PALESTINE MUNICIPAL AIRPORT, TX US","(31.77972, -95.70639)",128.9,31.76212,-95.63079,Palestine,Texas,Anderson County,US
"FORT MYERS PAGE FIELD AIRPORT, FL US","(26.58495, -81.86146)",3.8,26.57285,-81.87814,Pine Manor,Florida,Lee County,US
"PALMDALE AIRPORT, CA US","(34.62944, -118.08309)",764.7,34.57943,-118.11646,Palmdale,California,Los Angeles County,US
"FORT WORTH NAS, TX US","(32.76667, -97.45)",185.3,32.75957,-97.45835,White Settlement,Texas,Tarrant County,US
"ASTORIA AIRPORT PORT OF, OR US","(46.15694, -123.88326)",3.4,46.1651,-123.92376,Warrenton,Oregon,Clatsop County,US
"SOMERSET AIRPORT, NJ US","(40.62406, -74.66898)",30.1,40.60079,-74.64815,Bridgewater,New Jersey,Somerset County,US
"FALFURRIAS BROOKS CO AIRPORT, TX US","(27.20667, -98.12111)",34.1,27.22699,-98.14417,Falfurrias,Texas,Brooks County,US
"QUAKERTOWN AIRPORT, PA US","(40.43528, -75.38194)",160.3,40.44177,-75.34157,Quakertown,Pennsylvania,Bucks County,US
"MEDFORD INTERNATIONAL AIRPORT, OR US","(42.37503, -122.87702)",400.3,42.37596,-122.91643,Central Point,Oregon,Jackson County,US
"ADAK ISLAND, AK US","(51.87, -176.63)",7.0,53.8898,-166.5422,Dutch Harbor,Alaska,Aleutians West Census Area,US
"HOLLAND, MI US","(42.768, -86.201)",178.0,42.79697,-86.12588,Beechwood,Michigan,Ottawa County,US
"ATHENS MUNICIPAL, TX US","(32.163847, -95.828353)",135.33,32.20487,-95.85552,Athens,Texas,Henderson County,US
"HOMESTEAD AFB, FL US","(25.48333, -80.38333)",1.5,25.49539,-80.42922,Leisure City,Florida,Miami-Dade County,US
"ROBINSON MUNICIPAL AIRPORT, IL US","(39.01611, -87.64972)",140.8,39.00365,-87.6128,Palestine,Illinois,Crawford County,US
"ATWOOD RAWLINS CO AIRPORT, KS US","(39.84, -101.04194)",911.7,39.80667,-101.0421,Atwood,Kansas,Rawlins County,US
"MATINICUS ROCK ME, US","(43.78, -68.86)",16.2,44.04814,-68.8317,Vinalhaven,Maine,Knox County,US
"ROGERS MUNICIPAL CARTER FIELD AIRPORT, AR US","(36.37222, -94.10667)",412.4,36.38591,-94.1352,Little Flock,Arkansas,Benton County,US
"BLYTHEVILLE AFB, AR US","(35.96667, -89.95)",77.4,35.95979,-89.97203,Gosnell,Arkansas,Mississippi County,US
"WINFIELD STROTHER FIELD AIRPORT, KS US","(37.16493, -97.03496)",351.0,37.23975,-96.99559,Winfield,Kansas,Cowley County,US
"ABERDEEN REGIONAL AIRPORT, SD US","(45.44358, -98.41384)",395.6,45.4647,-98.48648,Aberdeen,South Dakota,Brown County,US
"JULIET DONNYBROOK, ND US","(48.412292, -101.891598)",670.26,48.67475,-102.08266,Kenmare,North Dakota,Ward County,US
"WEST DELTA 27A, MS US","(29.11666, -89.55)",36.3,29.48049,-89.69395,Port Sulphur,Louisiana,Plaquemines Parish,US
"KLAMATH FALLS INTERNATIONAL AIRPORT, OR US","(42.14702, -121.72553)",1244.4,42.20681,-121.73722,Altamont,Oregon,Klamath County,US
"NORWOOD MEMORIAL AIRPORT, MA US","(42.19123, -71.17326)",13.0,42.19454,-71.1995,Norwood,Massachusetts,Norfolk County,US
"RYAN FIELD AIRPORT, AZ US","(32.15, -111.167)",737.0,32.13238,-111.11414,Valencia West,Arizona,Pima County,US
"FARMINGTON REGIONAL AIRPORT, MO US","(37.76083, -90.42833)",288.6,37.78088,-90.42179,Farmington,Missouri,Saint Francois County,US
"BIG PINEY MARBLETON AIRPORT, WY US","(42.57802, -110.10976)",2118.0,42.55355,-110.10932,Marbleton,Wyoming,Sublette County,US
"CHILLICOTHE 22 ENE, MO US","(39.8668, -93.147)",253.9,39.87863,-93.18882,Linneus,Missouri,Linn County,US
"NEW CANAL, LA US","(30.0166666, -90.1166666)",4.0,29.98409,-90.15285,Metairie,Louisiana,Jefferson Parish,US
"UGNU KUPARUK AIRPORT, AK US","(70.33083, -149.5975)",20.4,70.25528,-148.33722,Prudhoe Bay,Alaska,North Slope Borough,US
"ANAKTUVUK AUTO, AK US","(68.16667, -151.76667)",640.1,70.2175,-150.97639,Nuiqsut,Alaska,North Slope Borough,US
"KEATON BEACH, FL US","(29.82, -83.59)",1.8,29.67106,-83.38764,Steinhatchee,Florida,Taylor County,US
"VALDOSTA MOODY AFB, GA US","(30.96667, -83.2)",71.0,31.07464,-83.19932,Ray City,Georgia,Berrien County,US
"GEORGE R CARR MEMORIAL AIR FIELD, LA US","(30.817, -89.867)",36.6,30.79102,-89.84869,Bogalusa,Louisiana,Washington Parish,US
"PAYSON AIRPORT, AZ US","(34.257, -111.339)",1572.2,34.23087,-111.32514,Payson,Arizona,Gila County,US
"ATHENS MUNICIPAL AIRPORT, TX US","(32.16384, -95.82835)",135.3,32.20487,-95.85552,Athens,Texas,Henderson County,US
"BLACKWATER SOUND, FL US","(25.1833333, -80.4333333)",3.0,25.08652,-80.44728,Key Largo,Florida,Monroe County,US
"ICY BAY, AK US","(59.923, -141.359)",15.0,63.33667,-142.98556,Tok,Alaska,Southeast Fairbanks Census Area,US
"BISHOPS HEAD, MD US","(38.22, -76.03)",3.0,37.98346,-75.85382,Crisfield,Maryland,Somerset County,US
"LIBERAL MUNICIPAL AIRPORT, KS US","(37.05, -100.96667)",875.7,37.04308,-100.921,Liberal,Kansas,Seward County,US
"CHEBOYGAN CO AIRPORT, MI US","(45.65361, -84.51917)",193.5,45.64696,-84.47448,Cheboygan,Michigan,Cheboygan County,US
"LEWISBURG, WV US","(37.86667, -80.4)",701.6,37.80179,-80.44563,Lewisburg,West Virginia,Greenbrier County,US
"CUSTER CO AIRPORT, SD US","(43.7331, -103.61513)",1695.8,43.76665,-103.59881,Custer,South Dakota,Custer County,US
"EUFAULA WEEDON FIELD AIRPORT, AL US","(31.95163, -85.13122)",86.8,31.89127,-85.14549,Eufaula,Alabama,Barbour County,US
"SELMA 13 WNW, AL US","(32.4567, -87.2422)",58.8,32.63235,-87.31917,Marion,Alabama,Perry County,US
"SCHENECTADY, NY US","(42.85, -73.95)",115.2,42.82647,-73.96429,Scotia,New York,Schenectady County,US
"SUMTER SHAW AFB, SC US","(33.96667, -80.46667)",73.5,33.95571,-80.45814,Cherryvale,South Carolina,Sumter County,US
"DALLAS ADDISON AIRPORT, TX US","(32.96861, -96.83639)",196.3,32.96179,-96.82917,Addison,Texas,Dallas County,US
"FLORA MUNICIPAL AIRPORT, IL US","(38.66472, -88.45278)",143.9,38.66894,-88.4856,Flora,Illinois,Clay County,US
"FINDLAY AIRPORT, OH US","(41.01369, -83.66814)",246.5,41.04422,-83.64993,Findlay,Ohio,Hancock County,US
"GREATER KANKAKEE AIRPORT, IL US","(41.0714, -87.8463)",191.7,41.12003,-87.86115,Kankakee,Illinois,Kankakee County,US
"CONVERSE CO AIRPORT ASOS, WY US","(42.79599, -105.38046)",1503.0,42.75969,-105.38221,Douglas,Wyoming,Converse County,US
"ROGERS CITY PRESQUE ISLE CO AIRPORT, MI US","(45.40722, -83.81306)",204.2,45.4214,-83.81833,Rogers City,Michigan,Presque Isle County,US
"REDWOOD FALLS MUNICIPAL AIRPORT, MN US","(44.54827, -95.08042)",312.7,44.5394,-95.11694,Redwood Falls,Minnesota,Redwood County,US
"RUSSELLVILLE MUNICIPAL AIRPORT, AR US","(35.25733, -93.095)",115.7,35.27842,-93.13379,Russellville,Arkansas,Pope County,US
"GARY, IN US","(41.61667, -87.41667)",180.1,41.6392,-87.45476,East Chicago,Indiana,Lake County,US
"NORTHWAY AIRPORT, AK US","(62.96148, -141.93834)",523.2,63.33667,-142.98556,Tok,Alaska,Southeast Fairbanks Census Area,US
"MONTAUK AIRPORT, NY US","(41.073056, -71.923505)",2.0,41.03594,-71.95451,Montauk,New York,Suffolk County,US
"MINDEN AIRPORT, LA US","(32.646, -93.298)",85.0,32.61543,-93.28684,Minden,Louisiana,Webster Parish,US
"CHINA LAKE NAF, CA US","(35.686254, -117.690911)",680.0,35.62246,-117.6709,Ridgecrest,California,Kern County,US
"PULASKI, VA US","(37.13333, -80.68333)",641.6,37.10568,-80.68534,Dublin,Virginia,Pulaski County,US
"POINT LAY, AK US","(69.73288, -163.00533)",7.6,66.89846,-162.59809,Kotzebue,Alaska,Northwest Arctic Borough,US
"HOUSTON EXECUTIVE AIRPORT, TX US","(29.8, -95.9)",51.2,29.78606,-95.95107,Brookshire,Texas,Waller County,US
"MINOT AFB, ND US","(48.41667, -101.35)",508.1,48.42087,-101.33914,Minot Air Force Base,North Dakota,Ward County,US
"WINDER BARROW CO AIRPORT, GA US","(33.98278, -83.66806)",287.4,33.97872,-83.70017,Russell,Georgia,Barrow County,US
"LITTLE MADEIRA, FL US","(25.1666666, -80.6333333)",3.0,25.01152,-80.51506,Tavernier,Florida,Monroe County,US
"LINCOLN LOGAN CO AIRPORT, IL US","(40.15833, -89.33472)",182.0,40.14838,-89.36482,Lincoln,Illinois,Logan County,US
"AUBURN MUNICIPAL AIRPORT, CA US","(38.95472, -121.08194)",466.6,38.93129,-121.08189,North Auburn,California,Placer County,US
"BRISTOL AIRPORT, TN US","(36.47964, -82.39893)",455.9,36.43955,-82.4557,Spurgeon,Tennessee,Washington County,US
"CLINTON MUNICIPAL AIRPORT, IA US","(41.83333, -90.33333)",213.4,41.78809,-90.25624,Camanche,Iowa,Clinton County,US
"ASHEVILLE REGIONAL AIRPORT, NC US","(35.43178, -82.53787)",645.6,35.43067,-82.50123,Fletcher,North Carolina,Henderson County,US
"ATLANTIC MUNICIPAL AIRPORT, IA US","(41.40722, -95.04667)",360.3,41.4036,-95.01388,Atlantic,Iowa,Cass County,US
"FAITH RANCH AIRPORT, TX US","(28.209, -100.019)",236.2,28.44193,-99.76033,Asherton,Texas,Dimmit County,US
"MOUNT DESERT ROCK ME, ME US","(43.97, -68.13)",9.1,44.25369,-68.35141,Tremont,Maine,Hancock County,US
"SHENANDOAH MUNICIPAL AIRPORT, IA US","(40.75139, -95.41333)",296.0,40.76555,-95.37221,Shenandoah,Iowa,Page County,US
"CALDWELL MUNICIPAL AIRPORT, TX US","(30.51556, -96.70417)",119.2,30.53132,-96.69303,Caldwell,Texas,Burleson County,US
"PORT ANGELES, WA US","(48.125, -123.44)",5.0,48.11815,-123.43074,Port Angeles,Washington,Clallam County,US
"NEWPORT STATE AIRPORT, RI US","(41.52991, -71.28331)",45.1,41.51579,-71.28752,Newport East,Rhode Island,Newport County,US
"MOOSE LAKE CARLTON CO AIRPORT, MN US","(46.41861, -92.80444)",328.0,46.45411,-92.76187,Moose Lake,Minnesota,Carlton County,US
"JACKSON REYNOLDS FIELD, MI US","(42.26373, -84.45644)",295.9,42.24587,-84.40135,Jackson,Michigan,Jackson County,US
"MULLAN PASS VOR DME, ID US","(47.4548, -115.67108)",1834.6,47.47409,-115.92794,Wallace,Idaho,Shoshone County,US
"PORT CLARENCE COAST GUARD STATION, AK US","(65.253664, -166.858519)",3.04,64.50111,-165.40639,Nome,Alaska,Nome Census Area,US
"HAMILTON BUTLER CO REGIONAL AIRPORT, OH US","(39.36119, -84.52063)",184.7,39.34589,-84.5605,Fairfield,Ohio,Butler County,US
"RED DOG DOCK, AK US","(67.57, -164.65)",3.0,66.89846,-162.59809,Kotzebue,Alaska,Northwest Arctic Borough,US
"CEDAR RAPIDS MUNICIPAL AIRPORT, IA US","(41.882917, -91.724591)",256.0,41.91945,-91.78101,Fairfax,Iowa,Linn County,US
"LAS CRUCES MUNICIPAL AIRPORT, NM US","(32.28333, -106.91667)",1357.6,32.27009,-106.80084,Mesilla,New Mexico,Dona Ana County,US
"FORT LAUDERDALE INTERNATIONAL AIRPORT, FL US","(26.07875, -80.16223)",1.0,26.05231,-80.14393,Dania Beach,Florida,Broward County,US
"MILWAUKEE TIMMERMAN AIRPORT, WI US","(43.1086, -88.0306)",223.7,43.10584,-88.06953,Butler,Wisconsin,Waukesha County,US
"ANDALUSIA OPP AIRPORT, AL US","(31.30614, -86.39018)",97.5,31.3085,-86.48329,Andalusia,Alabama,Covington County,US
"MINCHUMINA AIRPORT, AK US","(63.88611, -152.30194)",206.7,62.16129,-149.85075,Y,Alaska,Matanuska-Susitna Borough,US
"WHIDBEY ISLAND NAS, WA US","(48.35, -122.66667)",14.3,48.33812,-122.67441,Ault Field,Washington,Island County,US
"SPRINGMAID PIER, SC US","(33.65, -78.92)",10.0,33.68906,-78.88669,Myrtle Beach,South Carolina,Horry County,US
"DEL RIO LAUGHLIN AFB, TX US","(29.36667, -100.78333)",329.8,29.35663,-100.78353,Laughlin Air Force Base,Texas,Val Verde County,US
"QUILLAYUTE AIRPORT, WA US","(47.93695, -124.55757)",56.4,47.95036,-124.38549,Forks,Washington,Clallam County,US
"KENOSHA, WI US","(42.58, -87.8)",196.0,42.58474,-87.82119,Kenosha,Wisconsin,Kenosha County,US
"BAYOU GAUCHE, LA US","(29.77, -90.42)",10.0,29.78743,-90.41314,Bayou Gauche,Louisiana,Saint Charles Parish,US
"NOME NORTON SOUND, AK US","(64.5, -165.42)",8.0,64.50111,-165.40639,Nome,Alaska,Nome Census Area,US
"HOUSTON SOUTHWEST AIRPORT, TX US","(29.5, -95.477)",21.0,29.49607,-95.46578,Arcola,Texas,Fort Bend County,US
"GLASGOW MUNICIPAL AIRPORT, KY US","(37.033, -85.95)",218.2,36.99588,-85.91192,Glasgow,Kentucky,Barren County,US
"CLEVELAND, OH US","(41.53, -81.63)",210.0,41.54255,-81.62624,Bratenahl,Ohio,Cuyahoga County,US
"MASON CITY MUNICIPAL AIRPORT, IA US","(43.1544, -93.32611)",362.1,43.13802,-93.37937,Clear Lake,Iowa,Cerro Gordo County,US
"APALACHICOLA AIRPORT, FL US","(29.72681, -85.02481)",5.5,29.72577,-84.98324,Apalachicola,Florida,Franklin County,US
"HOMER AIRPORT, AK US","(59.64196, -151.49098)",19.1,59.6425,-151.5494,Homer,Alaska,Kenai Peninsula Borough,US
"PORT ARANSAS TX, US","(27.83, -97.05)",0.0,27.83392,-97.0611,Port Aransas,Texas,Nueces County,US
"CHANDALAR LAKE, AK US","(67.5111, -148.4925)",577.6,64.84722,-148.01444,Ester,Alaska,Fairbanks North Star Borough,US
"PORT TOWNSEND, WA US","(48.112, -122.758)",5.0,48.11704,-122.76045,Port Townsend,Washington,Jefferson County,US
"MYRTLE BEACH AFB, SC US","(33.68333, -78.93333)",7.6,33.72239,-78.95809,Forestbrook,South Carolina,Horry County,US
"NEW ORLEANS ALVIN CALLENDER FIELD, LA US","(29.81667, -90.01667)",1.5,29.85493,-89.99063,Belle Chasse,Louisiana,Plaquemines Parish,US
"MORA MUNICIPAL AIRPORT, MN US","(45.88583, -93.27167)",308.5,45.8769,-93.29384,Mora,Minnesota,Kanabec County,US
"GRAND CHENIER LITTLE PECAN ISLAND ARPT, LA US","(29.7996806, -92.803536)",2.04,30.08076,-92.67153,Lake Arthur,Louisiana,Jefferson Davis Parish,US
"WALNUT RIDGE MUNICIPAL AIRPORT, AR US","(36.12528, -90.92444)",83.2,36.0684,-90.95595,Walnut Ridge,Arkansas,Lawrence County,US
"ASTORIA, OR US","(46.208, -123.767)",2.0,46.18788,-123.83125,Astoria,Oregon,Clatsop County,US
"GLENDALE MUNICIPAL AIRPORT, AZ US","(33.52722, -112.295)",324.9,33.59393,-112.30294,Youngtown,Arizona,Maricopa County,US
"PAYNESVILLE MUNICIPAL AIRPORT, MN US","(45.37222, -94.74611)",359.7,45.38052,-94.71195,Paynesville,Minnesota,Stearns County,US
"LIHUE WEATHER SERVICE OFFICE AIRPORT 1020.1, HI US","(21.98048, -159.33863)",31.9,21.99773,-159.35918,Hanama'ulu,Hawaii,Kauai County,US
"EAGLE RIVER UNION AIRPORT, WI US","(45.93167, -89.26889)",500.5,45.91718,-89.2443,Eagle River,Wisconsin,Vilas County,US
"ECHO RYDER, ND US","(47.750753, -101.674209)",640.69,47.65222,-101.41572,Garrison,North Dakota,McLean County,US
"ANCHORAGE TED STEVENS INTERNATIONAL AIRPORT, AK US","(61.16916, -150.02771)",38.0,61.21806,-149.90028,Anchorage,Alaska,Anchorage Municipality,US
"MARATHON AIRPORT, FL US","(24.72624, -81.0477)",0.9,24.71375,-81.09035,Marathon,Florida,Monroe County,US
"PORT ARANSAS 32 NNE, TX US","(28.3045, -96.823)",4.6,28.41528,-96.71359,Seadrift,Texas,Calhoun County,US
"WILLMAR MUNICIPAL AIRPORT JOHN L RICE FIELD, MN US","(45.117, -95.133)",344.1,45.12191,-95.04334,Willmar,Minnesota,Kandiyohi County,US
"SAN DIEGO, CA US","(32.713, -117.173)",2.0,32.71533,-117.15726,San Diego,California,San Diego County,US
"MANSFIELD LAHM REGIONAL AIRPORT, OH US","(40.8204, -82.51769)",392.8,40.77145,-82.48433,Lincoln Heights,Ohio,Richland County,US
"FRANKFORT DOW MEMORIAL FIELD AIRPORT, MI US","(44.62556, -86.20083)",192.6,44.63361,-86.23454,Frankfort,Michigan,Benzie County,US
"KANSAS CITY INTERNATIONAL AIRPORT, MO US","(39.29747, -94.73087)",307.4,39.23778,-94.69607,Weatherby Lake,Missouri,Platte County,US
"HAYWARD MUNICIPAL AIRPORT, WI US","(46.03028, -91.44263)",368.9,46.01301,-91.48462,Hayward,Wisconsin,Sawyer County,US
"CARROLL ARTHUR N NEU AIRPORT, IA US","(42.04611, -94.78889)",367.0,42.05693,-94.72887,Glidden,Iowa,Carroll County,US
"DOMINION TERMINAL ASSOCIATION, VA US","(36.9666666, -76.4166666)",2.0,36.97876,-76.428,Newport News,Virginia,City of Newport News,US
"BAY CITY MUNICIPAL AIRPORT, TX US","(28.97306, -95.86333)",13.7,29.01775,-95.8894,Van Vleck,Texas,Matagorda County,US
"JFK INTERNATIONAL AIRPORT, NY US","(40.63915, -73.7639)",2.7,40.62205,-73.7468,Inwood,New York,Nassau County,US
"KALSKAG AIRPORT, AK US","(61.53639, -160.34139)",16.8,60.79222,-161.75583,Bethel,Alaska,Bethel Census Area,US
"PEACHTREE CITY FALCON FIELD, GA US","(33.35428, -84.56896)",241.1,33.39678,-84.59576,Peachtree City,Georgia,Fayette County,US
"PLATTSBURGH INTERNATIONAL AIRPORT, NY US","(44.63923, -73.46312)",50.4,44.68315,-73.50295,Plattsburgh West,New York,Clinton County,US
"SOUTH HAVEN AREA REGIONAL AIRPORT, MI US","(42.35083, -86.25611)",203.0,42.40309,-86.27364,South Haven,Michigan,Van Buren County,US
"MUNSING LAKESHORE, MI US","(46.412036, -86.650452)",186.5,46.4112,-86.64926,Munising,Michigan,Alger County,US
"JACKSONVILLE NAS, FL US","(30.23333, -81.66667)",6.1,30.16607,-81.70648,Orange Park,Florida,Clay County,US
"EL PASO INTERNATIONAL AIRPORT, TX US","(31.81234, -106.37737)",1202.1,31.81357,-106.41224,Fort Bliss,Texas,El Paso County,US
"GUSTAVUS, AK US","(58.4111, -135.7089)",12.2,59.22859,-135.44411,Haines,Alaska,Haines Borough,US
"WAYCROSS WARE CO AIRPORT, GA US","(31.25, -82.4)",43.3,31.22201,-82.38725,Deenwood,Georgia,Ware County,US
"ONTARIO INTERNATIONAL AIRPORT, CA US","(34.05314, -117.57689)",281.6,34.1064,-117.59311,Rancho Cucamonga,California,San Bernardino County,US
"LAFAYETTE 13 SE, LA US","(30.0918, -91.8731)",10.7,30.08742,-91.9054,Cade,Louisiana,Saint Martin Parish,US
"NUIQSUT AIRPORT, AK US","(70.21262, -150.99441)",11.3,70.2175,-150.97639,Nuiqsut,Alaska,North Slope Borough,US
"DES MOINES INTERNATIONAL AIRPORT, IA US","(41.53395, -93.65313)",286.3,41.47555,-93.67883,Norwalk,Iowa,Warren County,US
"COLEMAN MUNICIPAL AIRPORT, TX US","(31.841, -99.404)",517.2,31.82737,-99.42645,Coleman,Texas,Coleman County,US
"LONG POINT AUT, CA","(42.55, -80.05)",175.0,42.21561,-79.83422,North East,Pennsylvania,Erie County,US
"PASCAGOULA LOTT INTERNATIONAL AIRPORT, MS US","(30.46304, -88.53156)",2.8,30.44048,-88.54363,Escatawpa,Mississippi,Jackson County,US
"KINGS POINT, NY US","(40.8, -73.77)",10.0,40.78982,-73.74708,East Atlantic Beach,New York,Nassau County,US
"CLINTON MEMORIAL AIRPORT, MO US","(38.35, -93.683)",251.2,38.36863,-93.77827,Clinton,Missouri,Henry County,US
"DEL RIO INTERNATIONAL AIRPORT, TX US","(29.3784, -100.92704)",305.7,29.36745,-100.94371,Cienegas Terrace,Texas,Val Verde County,US
"ELKO REGIONAL AIRPORT, NV US","(40.82402, -115.78635)",1540.5,40.83242,-115.76312,Elko,Nevada,Elko County,US
"FREDERICK DOUGLASS GREATER ROCHESTER INTERNATIONAL AIRPORT, NY US","(43.11723, -77.67539)",164.5,43.17645,-77.70139,North Gates,New York,Monroe County,US
"NEW BEDFORD MUNICIPAL AIRPORT, MA US","(41.67908, -70.95911)",22.4,41.63622,-70.93421,New Bedford,Massachusetts,Bristol County,US
"SACRAMENTO METROPOLITAN AIRPORT, CA US","(38.70069, -121.59479)",7.5,38.71379,-121.46273,Elverta,California,Sacramento County,US
"DULUTH SKY HARBOR AIRPORT, MN US","(46.72167, -92.04333)",185.9,46.72077,-92.10408,Superior,Wisconsin,Douglas County,US
"VICTORIA REGIONAL AIRPORT, TX US","(28.86245, -96.9301)",33.7,28.80527,-97.0036,Victoria,Texas,Victoria County,US
"NEWPORT STATE AIRPORT, VT US","(44.88333, -72.23333)",278.9,44.93644,-72.2051,Newport,Vermont,Orleans County,US
"WEST PALM BEACH INTERNATIONAL AIRPORT, FL US","(26.6851, -80.09918)",3.5,26.69118,-80.12004,Haverhill,Florida,Palm Beach County,US
"STURGIS MUNICIPAL, KY US","(37.540833, -87.951833)",113.38,37.54671,-87.98391,Sturgis,Kentucky,Union County,US
"ALICE INTERNATIONAL AIRPORT, TX US","(27.74131, -98.02507)",52.0,27.75225,-98.06972,Alice,Texas,Jim Wells County,US
"CAMP SPRINGS ANDREWS AFB, MD US","(38.81667, -76.86667)",86.0,38.80531,-76.8746,Andrews AFB,Maryland,Prince George's County,US
"LAMONI MUNICIPAL AIRPORT, IA US","(40.63064, -93.90045)",345.5,40.62278,-93.93412,Lamoni,Iowa,Decatur County,US
"BERKELEY CO AIRPORT, SC US","(33.183, -80.033)",22.3,33.19632,-80.01429,Moncks Corner,South Carolina,Berkeley County,US
"NATCHITOCHES REGIONAL AIRPORT, LA US","(31.73583, -93.09917)",36.9,31.76072,-93.08627,Natchitoches,Louisiana,Natchitoches Parish,US
"HYANNIS BARNSTABLE MUNICIPAL AIRPORT, MA US","(41.6719, -70.26972)",11.4,41.65289,-70.2828,Hyannis,Massachusetts,Barnstable County,US
"STAMPEDE PASS, WA US","(47.2767, -121.3372)",1206.7,47.1954,-120.93925,Cle Elum,Washington,Kittitas County,US
"MENOMINEE, MI US","(45.11667, -87.63333)",190.5,45.09998,-87.63066,Marinette,Wisconsin,Marinette County,US
"TWIN FALLS SUN VALLEY REGIONAL AIRPORT, ID US","(42.47849, -114.47744)",1269.8,42.56297,-114.46087,Twin Falls,Idaho,Twin Falls County,US
"SPOKANE 17 SSW, WA US","(47.4174, -117.5264)",691.0,47.48739,-117.57576,Cheney,Washington,Spokane County,US
"EVANSTON UINTA CO BURNS FIELD, WY US","(41.27269, -111.03056)",2175.9,41.26828,-110.96324,Evanston,Wyoming,Uinta County,US
"BURLINGTON MUNICIPAL AIRPORT, WI US","(42.69, -88.30361)",237.4,42.67807,-88.2762,Burlington,Wisconsin,Racine County,US
"EMPORIA GREENSVILLE REGIONAL AIRPORT, VA US","(36.68667, -77.48278)",38.7,36.68598,-77.54248,Emporia,Virginia,City of Emporia,US
"COLLEGE STATION EASTERWOOD FIELD, TX US","(30.5912, -96.36309)",96.0,30.62798,-96.33441,College Station,Texas,Brazos County,US
"RAWLINS AIRPORT, WY US","(41.80644, -107.19518)",2063.2,41.79107,-107.23866,Rawlins,Wyoming,Carbon County,US
"COLDFOOT AIRPORT, AK US","(67.252, -150.2038)",317.6,70.2175,-150.97639,Nuiqsut,Alaska,North Slope Borough,US
"HENDERSON CITY CO AIRPORT, KY US","(37.8, -87.68333)",118.0,37.83615,-87.59001,Henderson,Kentucky,Henderson County,US
"9076070 S.W. PIER MI, US","(46.5, -84.37)",185.7,46.4953,-84.34532,Sault Ste. Marie,Michigan,Chippewa County,US
"JULIET PEETZ, CO US","(40.9666666, -103.2)",1380.13,41.14276,-102.97798,Sidney,Nebraska,Cheyenne County,US
"AMERADA PASS, LA US","(29.45, -91.3333333)",5.0,29.69326,-91.30205,Patterson,Louisiana,Saint Mary Parish,US
"METROPOLIS MUNICIPAL AIRPORT, IL US","(37.18583, -88.75056)",117.0,37.15117,-88.732,Metropolis,Illinois,Massac County,US
"HETTINGER MUNICIPAL AIRPORT, ND US","(46.0108, -102.65179)",823.2,46.00139,-102.63682,Hettinger,North Dakota,Adams County,US
"IDAHO CO AIRPORT, ID US","(45.94255, -116.12341)",1010.1,45.92655,-116.12237,Grangeville,Idaho,Idaho County,US
"TESORO MARINE TERMINAL, LA US","(29.6666666, -91.2333333)",3.0,29.69465,-91.21899,Berwick,Louisiana,Saint Mary Parish,US
"KANSAS CITY DOWNTOWN AIRPORT, MO US","(39.12791, -94.58915)",226.2,39.13,-94.56218,North Kansas City,Missouri,Clay County,US
"CLINTON SHERMAN AIRPORT, OK US","(35.35677, -99.20411)",584.7,35.34894,-99.17036,Burns Flat,Oklahoma,Washita County,US
"ERIE INTERNATIONAL AIRPORT, PA US","(42.08026, -80.18236)",222.2,42.03145,-80.25534,Fairview,Pennsylvania,Erie County,US
"JEFFERSON ASHE CO AIRPORT, NC US","(36.43222, -81.41944)",969.3,36.4204,-81.47344,Jefferson,North Carolina,Ashe County,US
"BUTTE BERT MOONEY AIRPORT, MT US","(45.96436, -112.50147)",1677.8,46.00382,-112.53474,Butte,Montana,Silver Bow County,US
"BLUEFIELD MERCER CO AIRPORT, WV US","(37.2978, -81.20358)",870.1,37.26984,-81.22232,Bluefield,West Virginia,Mercer County,US
"SOUTHLAND FIELD AIRPORT, LA US","(30.131, -93.376)",3.0,30.16882,-93.37599,Carlyss,Louisiana,Calcasieu Parish,US
"MCKINNEY MUNICIPAL AIRPORT, TX US","(33.18286, -96.58988)",173.3,33.19762,-96.61527,McKinney,Texas,Collin County,US
"GLASGOW INTERNATIONAL AIRPORT, MT US","(48.21416, -106.62139)",697.8,48.19696,-106.63671,Glasgow,Montana,Valley County,US
"PENN YAN AIRPORT, NY US","(42.64405, -77.05286)",267.4,42.6609,-77.05386,Penn Yan,New York,Yates County,US
"JOPLIN REGIONAL AIRPORT, MO US","(37.15222, -94.49524)",296.4,37.14645,-94.463,Webb City,Missouri,Jasper County,US
"ALBION MUNICIPAL AIRPORT, NE US","(41.73, -98.05444)",548.3,41.69084,-98.00367,Albion,Nebraska,Boone County,US
"MONTICELLO WAYNE CO AIRPORT, KY US","(36.85528, -84.85611)",293.5,36.82979,-84.84911,Monticello,Kentucky,Wayne County,US
"ROSCOE TURNER AIRPORT, MS US","(34.915, -88.604)",130.1,34.93425,-88.52227,Corinth,Mississippi,Alcorn County,US
"RACINE BATTEN AIRPORT, WI US","(42.75856, -87.8178)",203.6,42.72613,-87.78285,Racine,Wisconsin,Racine County,US
"GAYLORD 9 SSW, MI US","(44.908, -84.7203)",445.3,45.02751,-84.67475,Gaylord,Michigan,Otsego County,US
"GALLUP MUNICIPAL AIRPORT, NM US","(35.50857, -108.79319)",1970.3,35.52808,-108.74258,Gallup,New Mexico,McKinley County,US
"HARRISON 20 SSE, NE US","(42.4247, -103.7363)",1342.9,42.68719,-103.88271,Harrison,Nebraska,Sioux County,US
"MERCED 23 WSW, CA US","(37.2381, -120.8825)",23.8,37.25772,-120.99882,Gustine,California,Merced County,US
"AUGUSTA BUSH FIELD AIRPORT, GA US","(33.36517, -81.96353)",40.9,33.47097,-81.97484,Augusta,Georgia,Richmond County,US
"MAIN PASS 289 C OIL PLATFORM, LA US","(29.248, -88.441)",115.2,30.25548,-88.10972,Dauphin Island,Alabama,Mobile County,US
"SALMON LEMHI CO AIRPORT, ID US","(45.11667, -113.88333)",1232.6,45.17575,-113.8959,Salmon,Idaho,Lemhi County,US
"MANITOWOC, WI US","(44.13333, -87.66667)",198.4,44.08861,-87.65758,Manitowoc,Wisconsin,Manitowoc County,US
"SHREVEPORT DOWNTOWN AIRPORT, LA US","(32.53984, -93.74616)",52.3,32.52515,-93.75018,Shreveport,Louisiana,Caddo Parish,US
"NEW HAVEN TWEED AIRPORT, CT US","(41.259, -72.88911)",1.8,41.27621,-72.86843,East Haven,Connecticut,New Haven County,US
"MONTEVIDEO CHIPPEWA CO AIRPORT, MN US","(44.96889, -95.71)",315.2,44.94803,-95.71701,Montevideo,Minnesota,Chippewa County,US
"MULESHOE 19 S, TX US","(33.9557, -102.774)",1140.6,33.7251,-102.75938,Morton,Texas,Cochran County,US
"TOLEDO EXPRESS AIRPORT, OH US","(41.58705, -83.80538)",205.5,41.51894,-83.80383,Whitehouse,Ohio,Lucas County,US
"BEND MUNICIPAL AIRPORT, OR US","(44.095, -121.2)",1055.2,44.05817,-121.31531,Bend,Oregon,Deschutes County,US
"SPRINGDALE MUNICIPAL AIRPORT, AR US","(36.1764, -94.1193)",412.4,36.18674,-94.12881,Springdale,Arkansas,Washington County,US
"WILLIAM L WHITEHURST FIELD, TN US","(35.214458, -89.043361)",152.09,35.25619,-88.98784,Bolivar,Tennessee,Hardeman County,US
"ST. PAUL DOWNTOWN AIRPORT, MN US","(44.93234, -93.05586)",213.3,44.94441,-93.09327,Saint Paul,Minnesota,Ramsey County,US
"BLANDING, UT US","(37.6166666, -109.466666)",1840.0,37.62416,-109.47818,Blanding,Utah,San Juan County,US
"THUNDER BAY ISLAND, MI US","(45.035, -83.194)",175.9,45.06168,-83.43275,Alpena,Michigan,Alpena County,US
"BOSTON LOGAN INTERNATIONAL AIRPORT, MA US","(42.36057, -71.00975)",3.2,42.3751,-70.98283,Winthrop,Massachusetts,Suffolk County,US
"MACON CO AIRPORT, NC US","(35.2225, -83.41917)",615.7,35.18232,-83.38154,Franklin,North Carolina,Macon County,US
"BUFFALO 13 ESE, SD US","(45.516, -103.3017)",878.7,45.58416,-103.54603,Buffalo,South Dakota,Harding County,US
"CLEVELAND MUNICIPAL AIRPORT, MS US","(33.86113, -90.75788)",42.7,33.87817,-90.72732,Mound Bayou,Mississippi,Bolivar County,US
"ALPHA RAYNESFORD, MT US","(47.2833333, -110.8)",1219.2,47.50549,-111.18302,Malmstrom Air Force Base,Montana,Cascade County,US
"SAN JOSE REID HILLVIEW AIRPORT, CA US","(37.33333, -121.81667)",40.5,37.36605,-121.82718,Alum Rock,California,Santa Clara County,US
"VICKSBURG, MS US","(32.23333, -90.93333)",31.4,32.35265,-90.87788,Vicksburg,Mississippi,Warren County,US
"AUSTIN AIRPORT, NV US","(39.4679444, -117.197444)",1748.09,40.64213,-116.93427,Battle Mountain,Nevada,Lander County,US
"MATTOON CHARLESTON COLES CO AIRPORT, IL US","(39.47437, -88.27235)",216.4,39.49615,-88.17615,Charleston,Illinois,Coles County,US
"OSCAR GROVER, CO US","(40.8833333, -104.0)",1648.97,41.18193,-104.06912,Pine Bluffs,Wyoming,Laramie County,US
"MOORE CO AIRPORT, NC US","(35.23722, -79.39111)",140.5,35.25571,-79.37225,Whispering Pines,North Carolina,Moore County,US
"MINERAL POINT IOWA CO AIRPORT, WI US","(42.88667, -90.23611)",356.9,42.86,-90.17985,Mineral Point,Wisconsin,Iowa County,US
"HARLINGEN RIO GRANDE VALLEY INTERNATIONAL AIRPORT, TX US","(26.2303, -97.65565)",9.5,26.19063,-97.6961,Harlingen,Texas,Cameron County,US
"PADUCAH BARKLEY REGIONAL AIRPORT, KY US","(37.05635, -88.77425)",124.1,37.01672,-88.73061,Massac,Kentucky,McCracken County,US
"PILOT POINT, AK US","(57.58, -157.58)",17.0,59.03972,-158.4575,Dillingham,Alaska,Dillingham Census Area,US
"DILLINGHAM AIRPORT, AK US","(59.05, -158.5167)",26.2,59.03972,-158.4575,Dillingham,Alaska,Dillingham Census Area,US
"LAMBERTVILLE TOLEDO SUBURBAN AIRPORT, MI US","(41.73583, -83.65528)",203.9,41.76588,-83.62799,Lambertville,Michigan,Monroe County,US
"POWELL MUNICIPAL, WY US","(44.867161, -108.793428)",1552.04,44.75384,-108.75735,Powell,Wyoming,Park County,US
"SAN ANTONIO STINSON MUNICIPAL AIRPORT, TX US","(29.33896, -98.47198)",173.1,29.42412,-98.49363,San Antonio,Texas,Bexar County,US
"KAILUA KONA KE AHOLE AIRPORT, HI US","(19.73782, -156.04795)",11.3,19.72861,-155.98167,Kalaoa,Hawaii,Hawaii County,US
"IRONWOOD, MI US","(46.53333, -90.13333)",374.9,46.45467,-90.17101,Ironwood,Michigan,Gogebic County,US
"NASHUA BOIRE FIELD, NH US","(42.78333, -71.51667)",61.0,42.76537,-71.46757,Nashua,New Hampshire,Hillsborough County,US
"KALISPELL GLACIER AIRPORT, MT US","(48.30408, -114.26426)",903.2,48.22579,-114.27624,Evergreen,Montana,Flathead County,US
"BUCKEYE MUNICIPAL AIRPORT, AZ US","(33.417, -112.683)",311.2,33.37032,-112.58378,Buckeye,Arizona,Maricopa County,US
"GRENADIER ISLAND ONT, CA","(44.4166666, -75.85)",82.0,44.33588,-75.91773,Alexandria Bay,New York,Jefferson County,US
"FORT STOCKTON PECOS CO AIRPORT, TX US","(30.91193, -102.91714)",917.6,30.89404,-102.87932,Fort Stockton,Texas,Pecos County,US
"OMAHA EPPLEY AIRFIELD, NE US","(41.31186, -95.90186)",298.8,41.29055,-95.91807,Carter Lake,Iowa,Pottawattamie County,US
"WEBSTER CITY MUNICIPAL AIRPORT, IA US","(42.43639, -93.86861)",341.7,42.46942,-93.81605,Webster City,Iowa,Hamilton County,US
"PARKERSBURG MID OHIO VALLEY REGIONAL AIRPORT, WV US","(39.33948, -81.44379)",245.3,39.37285,-81.39567,Reno,Ohio,Washington County,US
"MARSHALL MEM MUNICIPAL, MO US","(39.095756, -93.202878)",237.43,39.12308,-93.19687,Marshall,Missouri,Saline County,US
"EAST GEORGIA REGIONAL AIRPORT, GA US","(32.609, -82.37)",100.3,32.59739,-82.33374,Swainsboro,Georgia,Emanuel County,US
"BETHEL AIRPORT, AK US","(60.78497, -161.82931)",32.6,60.79222,-161.75583,Bethel,Alaska,Bethel Census Area,US
"TEXAS STATE AQUARIUM, TX US","(27.812, -97.39)",8.0,27.80058,-97.39638,Corpus Christi,Texas,Nueces County,US
"ATLANTIC CITY MARINA, NJ US","(39.37778, -74.42361)",3.0,39.36428,-74.42293,Atlantic City,New Jersey,Atlantic County,US
"LOS ANGELES DOWNTOWN USC, CA US","(34.0236, -118.2911)",54.6,34.05223,-118.24368,Los Angeles,California,Los Angeles County,US
"SOCORRO MUNICIPAL AIRPORT, NM US","(34.06667, -106.9)",1485.9,34.0584,-106.89142,Socorro,New Mexico,Socorro County,US
"STOCKTON AIRPORT, CA US","(37.88997, -121.22637)",8.3,37.88409,-121.27106,French Camp,California,San Joaquin County,US
"MISSOULA INTERNATIONAL AIRPORT, MT US","(46.92076, -114.09376)",973.8,46.86326,-114.04844,Orchard Homes,Montana,Missoula County,US
"GRAND TRAVERSE LIGHT, MI US","(45.2, -85.55)",184.0,45.02305,-85.75981,Leland,Michigan,Leelanau County,US
"SAN CLEMENTE ISLAND NAAS, CA US","(33.02333, -118.58806)",55.5,33.34281,-118.32785,Avalon,California,Los Angeles County,US
"IONIA CO AIRPORT, MI US","(42.938, -85.061)",249.0,42.98725,-85.07112,Ionia,Michigan,Ionia County,US
"FITZGERALD MUNICIPAL AIRPORT, GA US","(31.684, -83.27)",111.3,31.71491,-83.25265,Fitzgerald,Georgia,Ben Hill County,US
"VALLEY HEAD 1 SSW, AL US","(34.5653, -85.6171)",310.9,34.44425,-85.71969,Fort Payne,Alabama,DeKalb County,US
"AKRON FULTON INTERNATIONAL AIRPORT, OH US","(41.03732, -81.46341)",318.1,41.03783,-81.44095,Sawyerwood,Ohio,Summit County,US
"OHIO UNIVERSITY AIRPORT SNYDER FIELD, OH US","(39.217, -82.233)",233.2,39.32924,-82.10126,Athens,Ohio,Athens County,US
"NECEDAH 5 WNW, WI US","(44.0604, -90.1737)",284.4,43.87914,-90.16541,New Lisbon,Wisconsin,Juneau County,US
"CHICAGO PALWAUKEE AIRPORT, IL US","(42.12076, -87.90479)",191.6,42.13919,-87.92896,Wheeling,Illinois,Cook County,US
"SANTA MARIA PUBLIC AIRPORT, CA US","(34.89403, -120.45216)",74.2,34.86526,-120.436,Orcutt,California,Santa Barbara County,US
"WELLS RESERVE, ME US","(43.3333333, -70.55)",19.0,43.32397,-70.59144,Wells Beach Station,Maine,York County,US
"GRAND MARAIS, MI US","(46.6666666, -85.9666666)",191.0,46.355,-85.50956,Newberry,Michigan,Luce County,US
"CHESTER CO GO CARLSON AIRPORT, PA US","(39.983, -75.867)",201.2,39.98316,-75.82384,Coatesville,Pennsylvania,Chester County,US
"LEES SUMMIT MUNICIPAL AIRPORT, MO US","(38.95765, -94.37117)",304.8,38.91084,-94.38217,Lees Summit,Missouri,Jackson County,US
"AHOSKIE TRI CO AIRPORT, NC US","(36.2975, -77.17083)",20.7,36.44238,-77.09858,Murfreesboro,North Carolina,Hertford County,US
"CARO TUSCOLA AREA AIRPORT, MI US","(43.45889, -83.44556)",213.7,43.49073,-83.39885,Caro,Michigan,Tuscola County,US
"KYLE OAKLEY FIELD AIRPORT, KY US","(36.66458, -88.37277)",176.2,36.61033,-88.31476,Murray,Kentucky,Calloway County,US
"CARBONDALE SOUTHERN ILLINOIS AIRPORT, IL US","(37.78329, -89.24533)",122.1,37.81755,-89.22786,De Soto,Illinois,Jackson County,US
"ROCKFORD GREATER ROCKFORD AIRPORT, IL US","(42.19325, -89.093348)",221.0,42.27113,-89.094,Rockford,Illinois,Winnebago County,US
"NAMPA MUNICIPAL AIRPORT, ID US","(43.581, -116.523)",773.3,43.54072,-116.56346,Nampa,Idaho,Canyon County,US
"UNIVERSITY AIRPORT, CA US","(38.533, -121.783)",21.0,38.54491,-121.74052,Davis,California,Yolo County,US
"FLOYD W JONES LEBANON, MO US","(37.648328, -92.652431)",402.64,37.6806,-92.66379,Lebanon,Missouri,Laclede County,US
"ST. PAUL 4 NE, AK US","(57.1575, -170.2119)",6.1,53.8898,-166.5422,Dutch Harbor,Alaska,Aleutians West Census Area,US
"TAWAS CITY GLOS WEATHER STATION, MI US","(44.256, -83.443)",171.6,44.27946,-83.49025,East Tawas,Michigan,Iosco County,US
"NEW ULM MUNICIPAL AIRPORT, MN US","(44.31944, -94.50222)",308.2,44.31246,-94.46053,New Ulm,Minnesota,Brown County,US
"ALAMOSA BERGMAN FIELD, CO US","(37.43931, -105.8618)",2297.4,37.46945,-105.87002,Alamosa,Colorado,Alamosa County,US
"GULF SHORES JACK EDWARDS AIRPORT, AL US","(30.29056, -87.67167)",4.9,30.24604,-87.70082,Gulf Shores,Alabama,Baldwin County,US
"KING SALMON 42 SE, AK US","(58.2077, -155.9225)",201.5,59.03972,-158.4575,Dillingham,Alaska,Dillingham Census Area,US
"QUINCY REGIONAL AIRPORT, IL US","(39.93709, -91.19661)",231.6,39.81699,-91.24237,Payson,Illinois,Adams County,US
"ROCHELLE MUNICIPAL KORITZ FIELD AIRPORT, IL US","(41.89278, -89.07806)",238.0,41.92392,-89.06871,Rochelle,Illinois,Ogle County,US
"MAGNOLIA OIL PLATFORM, LA US","(27.2, -92.2)",224.0,29.38883,-90.71398,Dulac,Louisiana,Terrebonne Parish,US
"ROSWELL INDUSTRIAL AIR PARK, NM US","(33.30735, -104.50817)",1104.6,33.39437,-104.52491,Roswell,New Mexico,Chaves County,US
"SHIRLEY BROOKHAVEN AIRPORT, NY US","(40.82121, -72.86742)",20.0,40.80149,-72.8676,Shirley,New York,Suffolk County,US
"RUBY 44 ESE, AK US","(64.5015, -154.1297)",78.9,60.69028,-151.28889,Nikiski,Alaska,Kenai Peninsula Borough,US
"OELWEIN MUNICIPAL AIRPORT, IA US","(42.68083, -91.97444)",328.0,42.67332,-91.9135,Oelwein,Iowa,Fayette County,US
"MIDDLEBURY STATE AIRPORT, VT US","(43.9854722, -73.0954722)",149.35,44.01553,-73.16937,Middlebury (village),Vermont,Addison County,US
"SOUTH PASS, WY US","(42.517, -108.783)",2588.1,42.83301,-108.73067,Lander,Wyoming,Fremont County,US
"WAHOO MUNICIPAL AIRPORT, NE US","(41.233, -96.6)",373.1,41.21139,-96.6203,Wahoo,Nebraska,Saunders County,US
"MINNEAPOLIS ANOKA CO AIRPORT, MN US","(45.15, -93.21667)",278.0,45.1608,-93.23495,Blaine,Minnesota,Anoka County,US
"SAFFORD MUNICIPAL AIRPORT, AZ US","(32.85654, -109.63603)",967.8,32.83395,-109.70758,Safford,Arizona,Graham County,US
"DAVIS MONTHAN AFB, AZ US","(32.16667, -110.88333)",824.2,32.22174,-110.92648,Tucson,Arizona,Pima County,US
"FAIRPORT, MI US","(45.6166666, -86.65)",186.0,45.74525,-87.06458,Escanaba,Michigan,Delta County,US
"MILK RIVER ALTA, CA","(49.1333333, -112.05)",1050.0,48.63304,-112.32616,Cut Bank,Montana,Glacier County,US
"ALMA BACON CO AIRPORT, GA US","(31.54006, -82.50735)",58.2,31.53937,-82.46236,Alma,Georgia,Bacon County,US
"AUBURN LEWISTON, ME US","(44.05, -70.28333)",87.8,44.08563,-70.32006,Minot,Maine,Androscoggin County,US
"MONTICELLO SULLIVAN, NY US","(41.70139, -74.795)",427.6,41.8012,-74.74655,Liberty,New York,Sullivan County,US
"FAIRBANKS 11 NE, AK US","(64.9735, -147.51)",347.5,64.8,-147.53333,Badger,Alaska,Fairbanks North Star Borough,US
"PORTAGE GLACIER VISITOR CENTER, AK US","(60.78351, -148.84839)",32.5,60.9425,-149.16639,Girdwood,Alaska,Anchorage Municipality,US
"ANCHORAGE LAKE HOOD SEA PLANE BASE, AK US","(61.1786, -149.96509)",25.1,61.21806,-149.90028,Anchorage,Alaska,Anchorage Municipality,US
"TROUT COVE, FL US","(25.2166666, -80.5333333)",3.0,25.08652,-80.44728,Key Largo,Florida,Monroe County,US
"STUART POWELL FIELD AIRPORT, KY US","(37.578, -84.77)",312.1,37.58674,-84.79384,Junction City,Kentucky,Boyle County,US
"ST CLAIR SHORES, MI US","(42.4666666, -82.8666666)",180.0,42.4367,-82.87686,Grosse Pointe Shores,Michigan,Wayne County,US
"ST MARYS AIRPORT, AK US","(62.06167, -163.3)",95.1,60.79222,-161.75583,Bethel,Alaska,Bethel Census Area,US
"EASTON NEWMAN FIELD AIRPORT, MD US","(38.80417, -76.06889)",21.9,38.77428,-76.07633,Easton,Maryland,Talbot County,US
"MIAMI MUNICIPAL, OK US","(36.909222, -94.8875)",246.27,36.9334,-94.87301,Commerce,Oklahoma,Ottawa County,US
"DARLINGTON CO JETPORT AIRPORT, SC US","(34.46583, -79.89028)",58.5,34.29988,-79.87617,Darlington,South Carolina,Darlington County,US
"PENDLETON E OR REGIONAL AIRPORT, OR US","(45.6975, -118.83446)",452.5,45.67207,-118.7886,Pendleton,Oregon,Umatilla County,US
"FORT SILL POST FIELD AF, OK US","(34.65, -98.4)",362.4,34.60869,-98.39033,Lawton,Oklahoma,Comanche County,US
"VINTON VETERANS MEMORIAL AIRPARK AIRPORT, IA US","(42.21861, -92.02583)",257.6,42.16861,-92.02351,Vinton,Iowa,Benton County,US
"SMYRNA AIRPORT, TN US","(36.00889, -86.52)",165.5,35.98284,-86.5186,Smyrna,Tennessee,Rutherford County,US
"9099018 MARQUETTE C.G. MI, US","(46.55, -87.38)",187.5,46.54354,-87.39542,Marquette,Michigan,Marquette County,US
"WISCONSIN RAPIDS ALEXANDER FIELD, WI US","(44.35904, -89.83695)",309.4,44.3508,-89.8654,Port Edwards,Wisconsin,Wood County,US
"ROLLOVER PASS, TX US","(29.5166666, -94.5)",10.0,29.47829,-94.57991,Bolivar Peninsula,Texas,Galveston County,US
"ANCHORAGE, AK US","(61.23, -149.88)",3.0,61.21806,-149.90028,Anchorage,Alaska,Anchorage Municipality,US
"COLORADO SPRINGS MUNICIPAL AIRPORT, CO US","(38.80949, -104.68873)",1884.2,38.85861,-104.69886,Cimarron Hills,Colorado,El Paso County,US
"STUTTGART MUNICIPAL AIRPORT, AR US","(34.60028, -91.57444)",68.3,34.50037,-91.55263,Stuttgart,Arkansas,Arkansas County,US
"HAZLEHURST AIRPORT, GA US","(31.885, -82.647)",78.0,31.86963,-82.5943,Hazlehurst,Georgia,Jeff Davis County,US
"WATERTOWN MUNICIPAL AIRPORT, WI US","(43.16667, -88.71667)",249.9,43.19472,-88.72899,Watertown,Wisconsin,Jefferson County,US
"GALVESTON BAY N JETY, TX US","(29.35, -94.72)",3.0,29.30135,-94.7977,Galveston,Texas,Galveston County,US
"SANFORD REGIONAL AIRPORT, ME US","(43.39361, -70.70778)",74.4,43.41119,-70.74256,South Sanford,Maine,York County,US
"DEERING AIRPORT, AK US","(66.06957, -162.76142)",5.4,66.89846,-162.59809,Kotzebue,Alaska,Northwest Arctic Borough,US
"NORFOLK INTERNATIONAL AIRPORT, VA US","(36.90371, -76.19266)",3.3,36.84681,-76.28522,Norfolk,Virginia,City of Norfolk,US
"WHEELING OHIO CO AIRPORT, WV US","(40.16994, -80.64406)",364.3,40.16979,-80.59369,West Liberty,West Virginia,Ohio County,US
"MOKUOLOE, HI US","(21.4333333, -157.7833333)",3.0,21.4277,-157.808,He'eia,Hawaii,Honolulu County,US
"ADA MUNICIPAL AIRPORT, OK US","(34.80417, -96.67111)",309.7,34.77453,-96.67834,Ada,Oklahoma,Pontotoc County,US
"DUNKIRK NY, US","(42.49, -79.35)",182.9,42.4795,-79.33393,Dunkirk,New York,Chautauqua County,US
"SHEPPARD AFB, TX US","(33.967, -98.483)",310.59,33.91371,-98.49339,Wichita Falls,Texas,Wichita County,US
"BISMARCK MUNICIPAL AIRPORT, ND US","(46.78232, -100.75752)",503.2,46.80833,-100.78374,Bismarck,North Dakota,Burleigh County,US
"PORTSMOUTH PEASE AFB, NH US","(43.08333, -70.81667)",30.5,43.10814,-70.77755,South Eliot,Maine,York County,US
"POTTER COVE PRUDENCE ISLAND, RI US","(41.637, -71.339)",3.0,41.58705,-71.28338,Melville,Rhode Island,Newport County,US
"DETROIT METRO AIRPORT, MI US","(42.23113, -83.33121)",191.9,42.24087,-83.26965,Taylor,Michigan,Wayne County,US
"LA VERNE BRACKETT FIELD, CA US","(34.1, -117.78333)",308.2,34.10084,-117.76784,La Verne,California,Los Angeles County,US
"ORANGE CO AIRPORT, VA US","(38.24694, -78.04556)",143.0,38.24541,-78.11083,Orange,Virginia,Orange County,US
"SHERIDAN AIRPORT, WY US","(44.76031, -106.97413)",1210.4,44.79719,-106.95618,Sheridan,Wyoming,Sheridan County,US
"MURPHY 10 W, ID US","(43.2044, -116.7505)",1204.0,43.21822,-116.55234,Murphy,Idaho,Owyhee County,US
"CUTLER FARRIS WHARF, ME US","(44.657, -67.21)",5.3,44.69869,-67.39471,Machiasport,Maine,Washington County,US
"LUMBERTON REGIONAL AIRPORT, NC US","(34.60817, -79.059)",36.9,34.61834,-79.01045,Lumberton,North Carolina,Robeson County,US
"JAFFREY MUNICIPAL AIRPORT SILVER RANCH, NH US","(42.80667, -72.00126)",308.4,42.81397,-72.02314,Jaffrey,New Hampshire,Cheshire County,US
"VIROQUA MUNICIPAL AIRPORT, WI US","(43.579, -90.913)",394.1,43.55692,-90.88874,Viroqua,Wisconsin,Vernon County,US
"CLARION MUNICIPAL AIRPORT, IA US","(42.74167, -93.75889)",354.2,42.73164,-93.73299,Clarion,Iowa,Wright County,US
"CLAREMORE REGIONAL AIRPORT, OK US","(36.29417, -95.47944)",221.0,36.29287,-95.56664,Justice,Oklahoma,Rogers County,US
"COOPERSTOWN MUNICIPAL AIRPORT, ND US","(47.423, -98.106)",434.0,47.44444,-98.12398,Cooperstown,North Dakota,Griggs County,US
"DAYTONA BEACH INTERNATIONAL AIRPORT, FL US","(29.17351, -81.07185)",7.9,29.21081,-81.02283,Daytona Beach,Florida,Volusia County,US
"COLUMBIA AIRPORT, CA US","(38.033, -120.417)",646.2,38.03631,-120.40131,Columbia,California,Tuolumne County,US
"BIG BEAR CITY AIRPORT, CA US","(34.264, -116.854)",2057.1,34.26112,-116.84503,Big Bear City,California,San Bernardino County,US
"ALBANY SW GEORGIA REGIONAL AIRPORT, GA US","(31.53642, -84.1958)",58.2,31.57851,-84.15574,Albany,Georgia,Dougherty County,US
"JOPLIN 24 N, MO US","(37.4277, -94.5829)",290.2,37.4556,-94.68913,Frontenac,Kansas,Crawford County,US
"WESTFIELD BARNES REGIONAL AIRPORT, MA US","(42.16005, -72.71246)",80.6,42.12509,-72.74954,Westfield,Massachusetts,Hampden County,US
"ALEXANDRIA BAY, NY US","(44.3333333, -75.9333333)",0.0,44.33588,-75.91773,Alexandria Bay,New York,Jefferson County,US
"ANNAPOLIS UNITED STATES NAVAL ACADEMY ASOS, MD US","(38.9913, -76.4891)",1.8,38.98568,-76.48774,Naval Academy,Maryland,Anne Arundel County,US
"FALMOUTH OTIS AFB, MA US","(41.65, -70.51667)",39.6,41.64844,-70.48114,Mashpee,Massachusetts,Barnstable County,US
"MACON MIDDLE GA REGIONAL AIRPORT, GA US","(32.68889, -83.65296)",104.5,32.63014,-83.68963,Centerville,Georgia,Houston County,US
"JONESBORO MUNICIPAL AIRPORT, AR US","(35.83567, -90.64424)",78.9,35.8423,-90.70428,Jonesboro,Arkansas,Craighead County,US
"PECOS MUNICIPAL AIRPORT, TX US","(31.3825, -103.51083)",796.4,31.42291,-103.49323,Pecos,Texas,Reeves County,US
"CHESTER CATAWBA REGIONAL AIRPORT, SC US","(34.783, -81.2)",200.3,34.71764,-81.1937,Eureka Mill,South Carolina,Chester County,US
"BELLINGHAM INTERNATIONAL AIRPORT, WA US","(48.7991, -122.54069)",45.9,48.78965,-122.55369,Marietta-Alderwood,Washington,Whatcom County,US
"CORONA MUNICIPAL AIRPORT, CA US","(33.89765, -117.60243)",162.5,33.87529,-117.56644,Corona,California,Riverside County,US
"BATESVILLE 8 WNW, AR US","(35.8201, -91.7812)",138.7,35.7698,-91.64097,Batesville,Arkansas,Independence County,US
"KEWAUNEE, WI US","(44.45, -87.4833333)",178.0,44.45833,-87.50314,Kewaunee,Wisconsin,Kewaunee County,US
"TITUSVILLE SPACE CENTER EXEC AIRPORT, FL US","(28.51667, -80.8)",10.7,28.47695,-80.78867,Port Saint John,Florida,Brevard County,US
"FRANKLIN, PA US","(41.38333, -79.86667)",469.4,41.39784,-79.83144,Franklin,Pennsylvania,Venango County,US
"TYLER POUNDS FIELD, TX US","(32.3587, -95.404)",159.5,32.30793,-95.47996,Chandler,Texas,Henderson County,US
"CHANDLER MUNICIPAL AIRPORT, OK US","(35.72361, -96.82)",299.9,35.70173,-96.88086,Chandler,Oklahoma,Lincoln County,US
"SPRINGFIELD COMANCHE NATIONAL GRASSLAND, CO US","(37.28346, -102.613784)",1337.0,37.40835,-102.61436,Springfield,Colorado,Baca County,US
"FORT RILEY MARSHALL ARMY AIR FIELD, KS US","(39.05, -96.76667)",324.6,39.02916,-96.78917,Grandview Plaza,Kansas,Geary County,US
"ROCHESTER SKYHAVEN AIRPORT, NH US","(43.27938, -70.92427)",100.2,43.30453,-70.97562,Rochester,New Hampshire,Strafford County,US
"HOLYOKE AIRPORT, CO US","(40.567, -102.267)",1137.2,40.58444,-102.30241,Holyoke,Colorado,Phillips County,US
"PONCA CITY MUNICIPAL AIRPORT, OK US","(36.73689, -97.10234)",304.3,36.70698,-97.08559,Ponca City,Oklahoma,Kay County,US
"CORDOVA 14 ESE, AK US","(60.4731, -145.3542)",25.3,60.54278,-145.7575,Cordova,Alaska,Valdez-Cordova Census Area,US
"ANN ARBOR MUNICIPAL AIRPORT, MI US","(42.22393, -83.73983)",250.6,42.27756,-83.74088,Ann Arbor,Michigan,Washtenaw County,US
"THIEF RIVER FALLS MUNICIPAL AIRPORT, MN US","(48.06667, -96.18333)",339.9,48.11914,-96.18115,Thief River Falls,Minnesota,Pennington County,US
"MARSHFIELD MUNICIPAL AIRPORT, MA US","(42.09833, -70.67222)",3.4,42.10234,-70.65736,Ocean Bluff-Brant Rock,Massachusetts,Plymouth County,US
"MOOSE 1 NNE, WY US","(43.6615, -110.712)",1970.8,43.47993,-110.76243,Jackson,Wyoming,Teton County,US
"FLIPPIN MARION CO REGIONAL AIRPORT, AR US","(36.29083, -92.59)",219.2,36.27896,-92.59711,Flippin,Arkansas,Marion County,US
"EAST HAMPTON AIRPORT, NY US","(40.95956, -72.25183)",17.1,40.93788,-72.30092,Bridgehampton,New York,Suffolk County,US
"CLAYTON MUNICIPAL AIR PARK, NM US","(36.44834, -103.15366)",1514.5,36.45169,-103.1841,Clayton,New Mexico,Union County,US
"TIOGA MUNICIPAL AIRPORT, ND US","(48.381, -102.898)",691.0,48.39724,-102.93824,Tioga,North Dakota,Williams County,US
"COLORADO CITY MUNICIPAL AIRPORT, AZ US","(36.95972, -113.01389)",1485.6,36.99026,-112.97577,Colorado City,Arizona,Mohave County,US
"SAXON HARBOR, WI US","(46.57, -90.43)",186.0,46.44967,-90.18656,Hurley,Wisconsin,Iron County,US
"TOLEDO, OH US","(41.68, -83.4)",184.0,41.61838,-83.36771,Curtice,Ohio,Lucas County,US
"JULIE POWER, MT US","(47.75, -111.55)",1152.14,47.5369,-111.48136,Sun Prairie,Montana,Cascade County,US
"PRESQUE ISLE LIGHT GLOS WEATHER STATION, MI US","(45.356, -83.492)",184.4,45.06168,-83.43275,Alpena,Michigan,Alpena County,US
"HAVRE AIRPORT ASOS, MT US","(48.54254, -109.76439)",788.2,48.55,-109.68409,Havre,Montana,Hill County,US
"PETERSBURG GRANT CO AIRPORT, WV US","(38.99417, -79.14417)",292.6,38.99261,-79.12392,Petersburg,West Virginia,Grant County,US
"KINGS LAND O LAKES AIRPORT, WI US","(46.15, -89.21667)",519.4,45.91718,-89.2443,Eagle River,Wisconsin,Vilas County,US
"GLENS FALLS AIRPORT, NY US","(43.33849, -73.61024)",97.7,43.37729,-73.61317,Queensbury,New York,Warren County,US
"DICKINSON THEODORE ROOSEVELT REGIONAL AIRPORT, ND US","(46.79968, -102.79715)",787.4,46.87918,-102.78962,Dickinson,North Dakota,Stark County,US
"SEARCY MUNICIPAL AIRPORT, AR US","(35.21194, -91.73694)",80.5,35.25064,-91.73625,Searcy,Arkansas,White County,US
"WATERLOO MUNICIPAL AIRPORT, IA US","(42.55437, -92.40131)",264.2,42.52776,-92.44547,Cedar Falls,Iowa,Black Hawk County,US
"TOPEKA ASOS, KS US","(39.07246, -95.62602)",268.1,39.04833,-95.67804,Topeka,Kansas,Shawnee County,US
"EARLY CO AIRPORT BLAKELY, GA US","(31.39694, -84.89528)",65.2,31.37768,-84.93409,Blakely,Georgia,Early County,US
"ATQASUK EDWARD BURNELL SR MEMORIAL AIRPORT, AK US","(70.46722, -157.43583)",29.3,71.29058,-156.78872,Barrow,Alaska,North Slope Borough,US
"ALPENA CO REGIONAL AIRPORT, MI US","(45.0716, -83.56451)",208.3,45.06168,-83.43275,Alpena,Michigan,Alpena County,US
"FOREST CITY MUNICIPAL AIRPORT, IA US","(43.23475, -93.6241)",374.6,43.26246,-93.63716,Forest City,Iowa,Winnebago County,US
"DENVER INTERNATIONAL AIRPORT, CO US","(39.84657, -104.65623)",1647.2,40.00721,-104.71608,Lochbuie,Colorado,Weld County,US
"JAMESTOWN MUNICIPAL AIRPORT, ND US","(46.92586, -98.67037)",455.7,46.91054,-98.70844,Jamestown,North Dakota,Stutsman County,US
"GEORGETOWN MUNICIPAL AIRPORT, TX US","(30.67917, -97.67944)",239.9,30.69936,-97.69195,Serenada,Texas,Williamson County,US
"OGDENSBURG INTERNATIONAL, NY US","(44.681854, -75.4655)",90.52,44.69423,-75.48634,Ogdensburg,New York,St. Lawrence County,US
"HOULTON AIRPORT, ME US","(46.11846, -67.79289)",146.4,46.12616,-67.8403,Houlton,Maine,Aroostook County,US
"HEBBRONVILLE JIM HOGG CO AIRPORT, TX US","(27.34944, -98.73694)",202.1,27.30688,-98.68032,Hebbronville,Texas,Jim Hogg County,US
"CAPE GIRARDEAU FAA AIRPORT, MO US","(37.22545, -89.57855)",101.8,37.21672,-89.52453,Scott City,Missouri,Scott County,US
"GARFIELD BRIGHT, FL US","(25.1666666, -80.8)",3.0,24.9243,-80.62784,Islamorada,Florida,Monroe County,US
"TACOMA NARROWS AIRPORT, WA US","(47.26744, -122.57623)",88.4,47.26871,-122.58402,Wollochet,Washington,Pierce County,US
"NIKISKI AK, AK US","(60.68, -151.4)",8.0,60.69028,-151.28889,Nikiski,Alaska,Kenai Peninsula Borough,US
"HOUSTON HOOKS MEMORIAL AIRPORT, TX US","(30.06801, -95.55628)",46.8,30.09716,-95.61605,Tomball,Texas,Harris County,US
"HEARNE MUNICIPAL AIRPORT, TX US","(30.87194, -96.62222)",86.9,30.87852,-96.59303,Hearne,Texas,Robertson County,US
"OLIVIA REGIONAL AIRPORT, MN US","(44.77861, -95.03278)",328.0,44.77635,-94.98972,Olivia,Minnesota,Renville County,US
"TAOS MUNICIPAL AIRPORT, NM US","(36.45, -105.66667)",2161.3,36.40725,-105.57307,Taos,New Mexico,Taos County,US
"ORR REGIONAL AIRPORT, MN US","(48.01583, -92.85583)",399.6,47.4891,-92.8838,Chisholm,Minnesota,Saint Louis County,US
"TOLEDO LIGHT 2, OH US","(41.82, -83.18)",188.0,41.94143,-83.26493,Stony Point,Michigan,Monroe County,US
"WHITEFIELD MOUNT WASHINGTON REGIONAL AIRPORT, NH US","(44.36594, -71.55217)",319.3,44.37312,-71.61008,Whitefield,New Hampshire,Coos County,US
"CURRITUCK CO AIRPORT, NC US","(36.39889, -76.01639)",4.9,36.44988,-76.01548,Currituck,North Carolina,Currituck County,US
"OLD TOWN 2 W, ME US","(44.9281, -68.7006)",38.7,44.88312,-68.67198,Orono,Maine,Penobscot County,US
"JACKSONVILLE CRAIG MUNICIPAL AIRPORT, FL US","(30.33708, -81.51277)",11.9,30.33441,-81.3987,Atlantic Beach,Florida,Duval County,US
"HAMPTON ROADS EXECUTIVE AIRPORT, VA US","(36.783, -76.45)",7.0,36.82098,-76.36883,Portsmouth Heights,Virginia,City of Portsmouth,US
"LAWRENCE SMITH MEM, MO US","(38.611022, -94.342131)",278.89,38.65334,-94.34884,Harrisonville,Missouri,Cass County,US
"RED BLUFF MUNICIPAL AIRPORT, CA US","(40.15186, -122.25478)",108.0,40.17849,-122.23583,Red Bluff,California,Tehama County,US
"TELLER AIRPORT, AK US","(65.233, -166.35)",89.0,64.50111,-165.40639,Nome,Alaska,Nome Census Area,US
"LEWISETTA VA, VA US","(37.98, -76.47)",10.0,37.91763,-76.47217,Heathsville,Virginia,Northumberland County,US
"PETERSON KEY, FL US","(24.9166666, -80.75)",3.0,24.9243,-80.62784,Islamorada,Florida,Monroe County,US
"RUBY AIRPORT, AK US","(64.72722, -155.46972)",199.0,60.69028,-151.28889,Nikiski,Alaska,Kenai Peninsula Borough,US
"T P MC CAMPBELL AIRPORT, TX US","(27.917, -97.2)",5.2,27.8778,-97.21166,Ingleside,Texas,San Patricio County,US
"DECATUR PRYOR FIELD, AL US","(34.65798, -86.94343)",179.1,34.60593,-86.98334,Decatur,Alabama,Morgan County,US
"MARQUETTE WEATHER SERVICE OFFICE AIRPORT, MI US","(46.5313, -87.5491)",431.3,46.4991,-87.6118,Negaunee,Michigan,Marquette County,US
"POSEY FIELD AIRPORT, AL US","(34.267, -87.6)",284.1,34.22649,-87.62141,Haleyville,Alabama,Winston County,US
"AFTON MUNICIPAL, WY US","(42.711247, -110.942164)",1896.16,42.72493,-110.93187,Afton,Wyoming,Lincoln County,US
"ST JOHNS INDUSTRIAL AIR PARK, AZ US","(34.51838, -109.38006)",1745.6,34.50587,-109.36093,Saint Johns,Arizona,Apache County,US
"MOBRIDGE MUNICIPAL AIRPORT, SD US","(45.54955, -100.40857)",521.0,45.53722,-100.42791,Mobridge,South Dakota,Walworth County,US
"BESSEMER AIPORT, AL US","(33.312883, -86.925919)",213.05,33.29622,-86.8436,Helena,Alabama,Shelby County,US
"SAND KEY FL, US","(24.46, -81.88)",0.0,24.5557,-81.78259,Key West,Florida,Monroe County,US
"SOUTH NAKNEK AIRPORT, AK US","(58.7, -157.0)",49.38,59.03972,-158.4575,Dillingham,Alaska,Dillingham Census Area,US
"BEAUFORT CO AIRPORT, SC US","(32.4121, -80.6343)",38.1,32.43158,-80.66983,Beaufort,South Carolina,Beaufort County,US
"BAUDETTE INTERNATIONAL AIRPORT, MN US","(48.72606, -94.61216)",329.8,48.71247,-94.59993,Baudette,Minnesota,Lake of the Woods County,US
"CLOQUET CARLTON CO AIRPORT, MN US","(46.7025, -92.50417)",389.8,46.72161,-92.45936,Cloquet,Minnesota,Carlton County,US
"TETERBORO AIRPORT, NJ US","(40.85898, -74.05616)",0.8,40.85288,-74.04208,Little Ferry,New Jersey,Bergen County,US
"ST LOUIS SPIRIT OF ST LOUIS AIRPORT, MO US","(38.65752, -90.65577)",139.5,38.71339,-90.68929,Weldon Spring,Missouri,Saint Charles County,US
"KETCHIKAN, AK US","(55.333, -131.625)",3.0,55.34225,-131.64784,Ketchikan,Alaska,Ketchikan Gateway Borough,US
"CONIMUCUT LIGHT, RI US","(41.72, -71.33)",10.0,41.74066,-71.30866,Barrington,Rhode Island,Bristol County,US
"COLUMBUS BAKALAR MUNICIPAL AIRPORT, IN US","(39.26667, -85.9)",199.9,39.25311,-85.94638,Lowell,Indiana,Bartholomew County,US
"SHELTON AIRPORT, WA US","(47.23842, -123.14147)",84.2,47.21509,-123.10071,Shelton,Washington,Mason County,US
"ALEKNAGIK 1 NNE, AK US","(59.284, -158.6145)",24.4,59.03972,-158.4575,Dillingham,Alaska,Dillingham Census Area,US
"ARDMORE DOWNTOWN AIRPORT, OK US","(34.14694, -97.1225)",257.3,34.17426,-97.14363,Ardmore,Oklahoma,Carter County,US
"MIDDLETON ISLAND, AK US","(59.43333, -146.33333)",14.0,60.54278,-145.7575,Cordova,Alaska,Valdez-Cordova Census Area,US
"MENOMINEE, MI US","(45.1, -87.5833333)",178.0,45.10776,-87.61427,Menominee,Michigan,Menominee County,US
"FLINT FCWOS, MI US","(42.96684, -83.74996)",234.8,43.01253,-83.68746,Flint,Michigan,Genesee County,US
"MACDILL AFB, FL US","(27.85, -82.51667)",4.3,27.8685,-82.61612,Gandy,Florida,Pinellas County,US
"GUYMON MUNICIPAL AIRPORT, OK US","(36.68185, -101.50515)",948.7,36.6828,-101.48155,Guymon,Oklahoma,Texas County,US
"PORT ALEXANDER, AK US","(56.247, -134.647)",7.0,57.05315,-135.33088,Sitka,Alaska,Sitka City and Borough,US
"MALDEN MUNICIPAL, MO US","(36.600558, -89.992203)",89.91,36.557,-89.96648,Malden,Missouri,Dunklin County,US
"WILLOUGHBY LOST NATION MUNICIPAL, OH US","(41.684028, -81.38975)",190.8,41.70504,-81.36039,Mentor-on-the-Lake,Ohio,Lake County,US
"OLIVE BRANCH AIRPORT, MS US","(34.97861, -89.78667)",122.5,34.96176,-89.82953,Olive Branch,Mississippi,De Soto County,US
"PORT WING, MI US","(46.7833333, -91.3833333)",186.0,47.02271,-91.67073,Two Harbors,Minnesota,Lake County,US
"JAMES A. RHODES AIRPORT, OH US","(38.9813, -82.5778)",221.0,38.89396,-82.57349,Oak Hill,Ohio,Jackson County,US
"BISHOP AIRPORT, CA US","(37.37114, -118.35886)",1252.8,37.36354,-118.39511,Bishop,California,Inyo County,US
"FREMONT MUNICIPAL AIRPORT, NE US","(41.44889, -96.52)",366.7,41.43333,-96.49808,Fremont,Nebraska,Dodge County,US
"DE KALB CO AIRPORT, IN US","(41.3, -85.067)",268.2,41.36699,-85.05886,Auburn,Indiana,DeKalb County,US
"DE KALB TAYLOR MUNICIPAL AIRPORT, IL US","(41.93167, -88.70806)",278.9,41.92003,-88.6887,Cortland,Illinois,DeKalb County,US
"9099004 POINT IROQUOIS MI, US","(46.49, -84.63)",186.1,46.4953,-84.34532,Sault Ste. Marie,Michigan,Chippewa County,US
"NARRAGANSETT BAY RESERVE, RI US","(41.6333333, -71.3333333)",13.0,41.58705,-71.28338,Melville,Rhode Island,Newport County,US
"FRESH WATER CANAL LOCKS, LA US","(29.55, -92.3)",10.0,29.99798,-92.28485,Kaplan,Louisiana,Vermilion Parish,US
"FORT PALASKI, GA US","(32.03, -80.9)",6.0,32.00022,-80.84567,Tybee Island,Georgia,Chatham County,US
"PRESIDIO LELY INTERNATIONAL AIRPORT, TX US","(29.63421, -104.36149)",896.1,29.56074,-104.37215,Presidio,Texas,Presidio County,US
"NEW CASTLE MUNICIPAL AIRPORT, PA US","(41.033, -80.417)",327.1,41.01062,-80.37951,Oakwood,Pennsylvania,Lawrence County,US
"MADISON DANE CO REGIONAL AIRPORT, WI US","(43.14069, -89.34521)",261.7,43.11833,-89.37956,Maple Bluff,Wisconsin,Dane County,US
"MILLVILLE MUNICIPAL AIRPORT, NJ US","(39.36623, -75.07778)",17.8,39.40206,-75.03934,Millville,New Jersey,Cumberland County,US
"UPPER CUMBERLAND REGIONAL AIRPORT, TN US","(36.056, -85.531)",312.1,36.16284,-85.50164,Cookeville,Tennessee,Putnam County,US
"WILLY WILLY, FL US","(25.619, -81.044)",3.0,25.46872,-80.47756,Homestead,Florida,Miami-Dade County,US
"WISCASSET AIRPORT, ME US","(43.96387, -69.71139)",16.2,44.00286,-69.6656,Wiscasset,Maine,Lincoln County,US
"DELTA MAX, ND US","(47.795121, -101.298758)",631.55,47.65222,-101.41572,Garrison,North Dakota,McLean County,US
"CALDWELL ESSEX CO AIRPORT, NJ US","(40.87645, -74.28284)",52.0,40.88371,-74.30598,Fairfield,New Jersey,Essex County,US
"CAPE HENRY, VA US","(36.93, -76.02)",3.0,36.85293,-75.97799,Virginia Beach,Virginia,City of Virginia Beach,US
"GALLIANO SOUTH LAFOURCHE AIRPORT, LA US","(29.44472, -90.26111)",0.3,29.44216,-90.29925,Galliano,Louisiana,Lafourche Parish,US
"FORT KNOX GODMAN ARMY AIR FIELD, KY US","(37.9, -85.96667)",239.0,37.89113,-85.96363,Fort Knox,Kentucky,Hardin County,US
"WILLIAMS 35 NNW, AZ US","(35.7552, -112.3374)",1825.8,36.04637,-112.15406,Grand Canyon Village,Arizona,Coconino County,US
"HALIFAX NORTHAMPTON REGIONAL AIRPORT, NC US","(36.33, -77.635)",44.2,36.32849,-77.58942,Halifax,North Carolina,Halifax County,US
"SOUTHWEST PASS LA, US","(28.9, -89.43)",0.0,29.48049,-89.69395,Port Sulphur,Louisiana,Plaquemines Parish,US
"FORT FRANCES RCS, CA","(48.65, -93.4333333)",342.0,48.60105,-93.41098,International Falls,Minnesota,Koochiching County,US
"LAFAYETTE PURDUE UNIVERSITY AIRPORT, IN US","(40.41236, -86.94739)",181.7,40.37365,-86.9489,Shadeland,Indiana,Tippecanoe County,US
"GROVE MUNICIPAL AIRPORT, OK US","(36.605, -94.73833)",253.9,36.59369,-94.76912,Grove,Oklahoma,Delaware County,US
"BAKERSFIELD AIRPORT, CA US","(35.43424, -119.05524)",149.3,35.41968,-119.01955,Oildale,California,Kern County,US
"SUFFOLK MUNICIPAL AIRPORT, VA US","(36.68222, -76.60167)",21.9,36.71709,-76.59023,South Suffolk,Virginia,City of Suffolk,US
"OWOSSO COMMUNITY AIRPORT, MI US","(42.99306, -84.13889)",224.3,42.98197,-84.11775,Corunna,Michigan,Shiawassee County,US
"HAGERSTOWN REGIONAL AIRPORT, MD US","(39.70618, -77.73037)",209.4,39.72482,-77.72444,State Line,Pennsylvania,Franklin County,US
"SOUTH BEND AIRPORT, IN US","(41.70722, -86.31628)",235.4,41.68338,-86.25001,South Bend,Indiana,Saint Joseph County,US
"FORT YUKON, AK US","(66.56667, -145.26667)",135.6,64.66327,-147.05442,Eielson Air Force Base,Alaska,Fairbanks North Star Borough,US
"MARSHFIELD MUNICIPAL AIRPORT, WI US","(44.6379, -90.18755)",381.5,44.66885,-90.1718,Marshfield,Wisconsin,Wood County,US
"BELLEFONTAINE REGIONAL AIRPORT, OH US","(40.367, -83.817)",342.3,40.36116,-83.75966,Bellefontaine,Ohio,Logan County,US
"CHEYBOGAN GLOS WEATHER STATION, MI US","(45.651, -84.472)",177.7,45.64696,-84.47448,Cheboygan,Michigan,Cheboygan County,US
"FORT PAYNE ISBELL FIELD, AL US","(34.47389, -85.72139)",267.3,34.44425,-85.71969,Fort Payne,Alabama,DeKalb County,US
"DENIO 52 WSW, NV US","(41.8484, -119.6357)",1981.2,42.18877,-120.34579,Lakeview,Oregon,Lake County,US
"BOWIE MUNICIPAL AIRPORT, TX US","(33.6, -97.783)",336.2,33.559,-97.84865,Bowie,Texas,Montague County,US
"MANTEO, NC US","(35.9172, -75.7024)",4.0,35.90823,-75.67573,Manteo,North Carolina,Dare County,US
"SONORA MUNICIPAL AIRPORT, TX US","(30.58583, -100.64861)",652.3,30.56685,-100.64343,Sonora,Texas,Sutton County,US
"RICHMOND INTERNATIONAL AIRPORT, VA US","(37.51154, -77.32338)",50.7,37.52348,-77.31581,Sandston,Virginia,Henrico County,US
"CHARLIE GERING, NE US","(41.5833333, -103.666666)",1370.99,41.55636,-103.73856,Harrisburg,Nebraska,Banner County,US
"CROOKSTON MUNICIPAL KIRKWOOD FIELD AIRPORT, MN US","(47.84167, -96.62139)",274.0,47.77414,-96.60812,Crookston,Minnesota,Polk County,US
"PASSAGE ISLAND MI, MI US","(48.22, -88.37)",195.4,47.41381,-88.29566,Eagle River,Michigan,Keweenaw County,US
"HEMET RYAN, CA US","(33.7333333, -117.0166666)",460.85,33.74761,-116.97307,Hemet,California,Riverside County,US
"TROY 2 W, AL US","(31.7901, -86.0004)",143.9,31.80877,-85.96995,Troy,Alabama,Pike County,US
"CONCORD REGIONAL AIRPORT, NC US","(35.38963, -80.70735)",214.9,35.32395,-80.65784,Harrisburg,North Carolina,Cabarrus County,US
"SPRINGFIELD ABRAHAM LINCOLN CAPITAL AIRPORT, IL US","(39.84529, -89.68401)",179.7,39.80172,-89.64371,Springfield,Illinois,Sangamon County,US
"MONROE MUNICIPAL AIRPORT, WI US","(42.61472, -89.59056)",330.7,42.60112,-89.63845,Monroe,Wisconsin,Green County,US
"MESA FALCON FIELD, AZ US","(33.46588, -111.72121)",423.3,33.42227,-111.82264,Mesa,Arizona,Maricopa County,US
"JACKSON CO AIRPORT, GA US","(34.147, -83.561)",290.2,34.11705,-83.57239,Jefferson,Georgia,Jackson County,US
"MALMSTROM AFB, MT US","(47.51667, -111.18333)",1058.3,47.50549,-111.18302,Malmstrom Air Force Base,Montana,Cascade County,US
"MIDDLETOWN HOOK FIELD MUNICIPAL AIRPORT, OH US","(39.53111, -84.39528)",198.1,39.51506,-84.39828,Middletown,Ohio,Butler County,US
"BLACKWELL TONKAWA MUNICIPAL AIRPORT, OK US","(36.75, -97.35)",314.2,36.67837,-97.31004,Tonkawa,Oklahoma,Kay County,US
"NORTH ADAMS HARRIMAN AIRPORT, MA US","(42.69729, -73.1696)",197.0,42.71202,-73.20372,Williamstown,Massachusetts,Berkshire County,US
"SEATTLE TACOMA AIRPORT, WA US","(47.44467, -122.31442)",112.5,47.44846,-122.29217,SeaTac,Washington,King County,US
"JACKSONVILLE CECIL FIELD AIRPORT, FL US","(30.21861, -81.87639)",24.7,30.30274,-81.97539,Baldwin,Florida,Duval County,US
"SANDPOINT AIRPORT, ID US","(48.29944, -116.56)",648.3,48.27659,-116.55325,Sandpoint,Idaho,Bonner County,US
"JOHNSON KEY, FL US","(25.05, -80.9)",3.0,24.9243,-80.62784,Islamorada,Florida,Monroe County,US
"SALINA MUNICIPAL AIRPORT, KS US","(38.77996, -97.64444)",385.0,38.84028,-97.61142,Salina,Kansas,Saline County,US
"VERMILION 331 OIL PLATFORM, US","(28.27, -92.264)",90.2,29.94826,-91.98873,Delcambre,Louisiana,Iberia Parish,US
"CASA GRANDE MUNICIPAL AIRPORT, AZ US","(32.95, -111.76667)",445.6,32.8795,-111.75735,Casa Grande,Arizona,Pinal County,US
"IDAHO FALLS FAA AIRPORT, ID US","(43.52044, -112.06753)",1442.7,43.46658,-112.03414,Idaho Falls,Idaho,Bonneville County,US
"BURNET MUNICIPAL AIRPORT, TX US","(30.74067, -98.23539)",386.1,30.75824,-98.22836,Burnet,Texas,Burnet County,US
"SAN MARCOS MUNICIPAL AIRPORT, TX US","(29.89083, -97.86444)",182.0,29.8455,-97.84084,Martindale,Texas,Caldwell County,US
"CHARLESTON EXECUTIVE AIRPORT, SC US","(32.701, -80.003)",5.2,32.65518,-79.94037,Folly Beach,South Carolina,Charleston County,US
"TEKAMAH MUNICIPAL AIRPORT, NE US","(41.76304, -96.17973)",312.0,41.77832,-96.22113,Tekamah,Nebraska,Burt County,US
"REDDING AIRPORT, CA US","(40.51462, -122.29773)",152.6,40.44821,-122.29778,Anderson,California,Shasta County,US
"BRITTON MUNICIPAL, SD US","(45.815222, -97.743139)",401.72,45.79162,-97.75094,Britton,South Dakota,Marshall County,US
"WASHINGTON CO AIRPORT, PA US","(40.13333, -80.28333)",361.2,40.17396,-80.24617,Washington,Pennsylvania,Washington County,US
"GOLDSBORO WAYNE MUNICIPAL AIRPORT, NC US","(35.46028, -77.96472)",40.8,35.38488,-77.99277,Goldsboro,North Carolina,Wayne County,US
"JASPER CO BELL FIELD AIRPORT, TX US","(30.88556, -94.03472)",64.9,30.9202,-93.99658,Jasper,Texas,Jasper County,US
"NEWTON 5 ENE, MS US","(32.3378, -89.0703)",114.0,32.32126,-89.16339,Newton,Mississippi,Newton County,US
"KILLEEN MUNICIPAL AIRPORT, TX US","(31.08333, -97.68333)",256.3,31.08351,-97.65974,Harker Heights,Texas,Bell County,US
"NEVADA CO AIR PARK, CA US","(39.224, -121.003)",961.0,39.26173,-121.01779,Nevada City,California,Nevada County,US
"OZARK FORT RUCKER, AL US","(31.35, -85.66667)",96.6,31.34282,-85.71538,Fort Rucker,Alabama,Dale County,US
"SIDNEY MUNICIPAL AIRPORT, NE US","(41.09926, -102.98642)",1306.8,41.14276,-102.97798,Sidney,Nebraska,Cheyenne County,US
"SIOUX CITY AIRPORT, IA US","(42.39169, -96.37948)",332.8,42.40388,-96.35864,Sergeant Bluff,Iowa,Woodbury County,US
"SEWELLS POINT VA, VA US","(36.95, -76.33)",10.0,37.02987,-76.34522,Hampton,Virginia,City of Hampton,US
"OCEAN CITY INLET, MD US","(38.3166666, -75.0833333)",0.0,38.3365,-75.08491,Ocean City,Maryland,Worcester County,US
"ECHO PINE BLUFFS, NE US","(41.1166666, -103.983333)",1609.34,41.18193,-104.06912,Pine Bluffs,Wyoming,Laramie County,US
"KNOXVILLE AIRPORT, TN US","(35.81801, -83.98573)",295.8,35.78953,-83.97379,Alcoa,Tennessee,Blount County,US
"ARLINGTON MUNICIPAL AIRPORT, WA US","(48.16056, -122.15889)",41.8,48.15232,-122.18264,Smokey Point,Washington,Snohomish County,US
"SHELDON MUNICIPAL AIRPORT, IA US","(43.20833, -95.83333)",432.5,43.18109,-95.85613,Sheldon,Iowa,O'Brien County,US
"BAY WAVELAND YACHT CLUB, MS US","(30.3166666, -89.3166666)",5.0,30.30881,-89.33005,Bay Saint Louis,Mississippi,Hancock County,US
"MOUNT CLEMENS ANG BASE, MI US","(42.6083, -82.8183)",176.8,42.59726,-82.87798,Mount Clemens,Michigan,Macomb County,US
"MCALLEN MILLER INTERNATIONAL AIRPORT, TX US","(26.17912, -98.2445)",30.1,26.20341,-98.23001,McAllen,Texas,Hidalgo County,US
"LA JOLLA, CA US","(32.867, -117.258)",2.0,32.84727,-117.2742,La Jolla,California,San Diego County,US
"OLCOTT HARBOR, NY US","(43.3333333, -78.7166666)",83.0,43.33783,-78.71476,Olcott,New York,Niagara County,US
"HILL CITY MUNICIPAL AIRPORT, KS US","(39.37412, -99.82987)",667.1,39.36473,-99.84206,Hill City,Kansas,Graham County,US
"HOLLOMAN AFB, NM US","(32.85, -106.1)",1267.4,32.84827,-106.09977,Holloman Air Force Base,New Mexico,Otero County,US
"VENICE FL, FL US","(27.07, -82.45)",0.0,27.09978,-82.45426,Venice,Florida,Sarasota County,US
"PROSPECT CREEK AIRPORT, AK US","(66.8166666, -150.65)",335.0,64.84722,-148.01444,Ester,Alaska,Fairbanks North Star Borough,US
"CULLMAN 3 ENE, AL US","(34.1954, -86.7963)",243.8,34.17482,-86.84361,Cullman,Alabama,Cullman County,US
"HAWTHORNE INDUSTRIAL, NV US","(38.544367, -118.6343)",1284.73,38.52464,-118.62458,Hawthorne,Nevada,Mineral County,US
"MIKE MOORE, MT US","(47.0166666, -109.633333)",1256.08,47.06247,-109.42824,Lewistown,Montana,Fergus County,US
"LANGLEY AIR FORCE BASE, VA US","(37.08278, -76.36028)",3.0,37.12237,-76.34578,Poquoson,Virginia,City of Poquoson,US
"SACRAMENTO MATHER AFB, CA US","(38.56667, -121.3)",30.2,38.58907,-121.30273,Rancho Cordova,California,Sacramento County,US
"CULLMAN FOLSOM FIELD AIRPORT, AL US","(34.26889, -86.85833)",293.5,34.17482,-86.84361,Cullman,Alabama,Cullman County,US
"STILLWATER REGIONAL AIRPORT, OK US","(36.16238, -97.08931)",292.8,36.11561,-97.05837,Stillwater,Oklahoma,Payne County,US
"TRAVIS FIELD AFB, CA US","(38.26667, -121.93333)",18.0,38.35658,-121.98774,Vacaville,California,Solano County,US
"ST.STEPHEN AUT, CA","(45.2166666, -67.25)",26.0,45.18896,-67.2786,Calais,Maine,Washington County,US
"GRAND RAPIDS GERALD R FORD INTERNATIONAL AIRPORT, MI US","(42.8821, -85.52297)",240.3,42.95947,-85.48975,Forest Hills,Michigan,Kent County,US
"LAKEVIEW LAKE CO AIRPORT, OR US","(42.16667, -120.4)",1441.1,42.18877,-120.34579,Lakeview,Oregon,Lake County,US
"RHINELANDER ONEIDA CO AIRPORT, WI US","(45.63143, -89.4824)",502.2,45.63662,-89.41208,Rhinelander,Wisconsin,Oneida County,US
"ABINGDON VIRGINIA HIGHLANDS AIRPORT, VA US","(36.68333, -82.03333)",630.9,36.70983,-81.97735,Abingdon,Virginia,Washington County,US
"WEST WOODWARD AIRPORT, OK US","(36.43667, -99.52083)",666.9,36.43365,-99.39039,Woodward,Oklahoma,Woodward County,US
"COLUMBUS, NE US","(41.448, -97.34264)",441.0,41.42973,-97.36838,Columbus,Nebraska,Platte County,US
"WICHITA COLONEL JAMES JABARA AIRPORT, KS US","(37.74965, -97.21907)",427.9,37.76251,-97.26699,Bellaire,Kansas,Sedgwick County,US
"ROCK SPRINGS, PA US","(40.71, -77.93)",371.9,40.73367,-77.88556,Pine Grove Mills,Pennsylvania,Centre County,US
"9076024 ROCK CUT MI, US","(46.27, -84.19)",179.6,46.4953,-84.34532,Sault Ste. Marie,Michigan,Chippewa County,US
"HAYS MUNICIPAL AIRPORT, KS US","(38.85, -99.26667)",609.0,38.87918,-99.32677,Hays,Kansas,Ellis County,US
"STANNARD ROCK MI, MI US","(47.18, -87.22)",182.9,46.54354,-87.39542,Marquette,Michigan,Marquette County,US
"NORFOLK CHESAPEAKE REGIONAL AIRPORT, VA US","(36.66556, -76.32056)",6.1,36.81904,-76.27494,Chesapeake,Virginia,City of Chesapeake,US
"FORT SMITH REGIONAL AIRPORT, AR US","(35.33346, -94.36526)",136.7,35.38592,-94.39855,Fort Smith,Arkansas,Sebastian County,US
"LOS ALAMOS 13 W, NM US","(35.8584, -106.5214)",2656.6,35.88808,-106.30697,Los Alamos,New Mexico,Los Alamos County,US
"PITTSFIELD MUNICIPAL AIRPORT, MA US","(42.42686, -73.28907)",351.2,42.45008,-73.24538,Pittsfield,Massachusetts,Berkshire County,US
"FARGO HECTOR INTERNATIONAL AIRPORT, ND US","(46.92424, -96.81186)",272.8,46.93191,-96.77897,Oakport,Minnesota,Clay County,US
"WILLIAMSBURG REGIONAL AIRPORT, SC US","(33.717, -79.85)",20.1,33.66766,-79.83063,Kingstree,South Carolina,Williamsburg County,US
"TILLAMOOK AIRPORT, OR US","(45.417, -123.817)",11.3,45.4564,-123.84553,Tillamook,Oregon,Tillamook County,US
"LOUISVILLE INTERNATIONAL AIRPORT, KY US","(38.17738, -85.73077)",146.3,38.20396,-85.72524,Audubon Park,Kentucky,Jefferson County,US
"MASINASIN AGDM, CA","(49.1333333, -111.65)",948.0,48.50526,-111.85697,Shelby,Montana,Toole County,US
"NEW RIVER MCAF, NC US","(34.70842, -77.43966)",7.9,34.75405,-77.43024,Jacksonville,North Carolina,Onslow County,US
"MONTGOMERY AIRPORT, AL US","(32.2997, -86.40745)",66.2,32.36681,-86.29997,Montgomery,Alabama,Montgomery County,US
"KENOSHA REGIONAL AIRPORT, WI US","(42.59529, -87.93832)",223.5,42.55308,-87.93341,Pleasant Prairie,Wisconsin,Kenosha County,US
"SITKA 1 NE, AK US","(57.0574, -135.3266)",23.8,57.05315,-135.33088,Sitka,Alaska,Sitka City and Borough,US
"EDENTON NORTHEAST REGIONAL AIRPORT, NC US","(36.0275, -76.56694)",6.1,36.05794,-76.60772,Edenton,North Carolina,Chowan County,US
"SHREVEPORT BARKSDALE AFB, LA US","(32.5, -93.66667)",50.6,32.51599,-93.73212,Bossier City,Louisiana,Bossier Parish,US
"CHICAGO AURORA MUNICIPAL AIRPORT, IL US","(41.77132, -88.48148)",213.7,41.76142,-88.44369,Sugar Grove,Illinois,Kane County,US
"OSHKOSH WITTMAN REGIONAL AIRPORT, WI US","(43.9871, -88.55642)",239.3,44.02471,-88.54261,Oshkosh,Wisconsin,Winnebago County,US
"BOULDER 14 W, CO US","(40.0354, -105.5409)",2995.6,39.96138,-105.51083,Nederland,Colorado,Boulder County,US
"MIDDLESBORO BELL CO AIRPORT, KY US","(36.61056, -83.7375)",351.7,36.60842,-83.71658,Middlesboro,Kentucky,Bell County,US
"MCOLF CAMP PENDLETON RED BEACH AIRPORT, CA US","(33.286, -117.456)",27.1,33.22844,-117.37929,Camp Pendleton South,California,San Diego County,US
"HANFORD MUNICIPAL AIRPORT, CA US","(36.3114, -119.62319)",76.0,36.30328,-119.63624,Home Garden,California,Kings County,US
"ALGONAC, MI US","(42.621, -82.527)",179.2,42.61858,-82.5323,Algonac,Michigan,Saint Clair County,US
"MOUNT IDA, AR US","(34.5467, -93.578)",214.0,34.55676,-93.63408,Mount Ida,Arkansas,Montgomery County,US
"STEVEN A BEAN MUNICIPAL, ME US","(44.991894, -70.664625)",556.26,44.82311,-70.33951,Phillips,Maine,Franklin County,US
"KINGMAN AIRPORT, AZ US","(35.25745, -113.93405)",1043.5,35.26504,-114.03226,New Kingman-Butler,Arizona,Mohave County,US
"MIAMI OPA LOCKA AIRPORT, FL US","(25.91017, -80.28283)",1.3,25.90871,-80.30866,Miami Lakes,Florida,Miami-Dade County,US
"RIVERTON REGIONAL AIRPORT, WY US","(43.06217, -108.44705)",1660.3,43.02496,-108.3801,Riverton,Wyoming,Fremont County,US
"PINEY ISLAND, NC US","(35.02, -76.46)",5.2,35.14294,-76.77021,Bayboro,North Carolina,Pamlico County,US
"INDIAN SPRINGS, NV US","(36.58333, -115.68333)",951.9,36.20829,-115.98391,Pahrump,Nevada,Nye County,US
"9099090 GRAND MARAIS MN, US","(47.75, -90.34)",186.2,47.75045,-90.33427,Grand Marais,Minnesota,Cook County,US
"SOLOMONS ISLAND, MD US","(38.32, -76.45)",10.0,38.31846,-76.45412,Solomons,Maryland,Calvert County,US
"DURANGO LA PLATA CO AIRPORT, CO US","(37.1431, -107.76023)",2020.6,37.27528,-107.88007,Durango,Colorado,La Plata County,US
"OXFORD WATERBURY, CT US","(41.48333, -73.13333)",221.3,41.52787,-73.12761,Middlebury,Connecticut,New Haven County,US
"NEWBERRY CO AIRPORT, SC US","(34.3, -81.633)",173.1,34.27458,-81.61872,Newberry,South Carolina,Newberry County,US
"HOTEL FAIRFIELD, MT US","(47.7, -111.95)",1178.66,47.81245,-112.18363,Choteau,Montana,Teton County,US
"TWENTYNINE PALMS MC, CA US","(34.294, -116.14722)",610.5,34.13556,-116.05417,Twentynine Palms,California,San Bernardino County,US
"ST LOUIS LAMBERT INTERNATIONAL AIRPORT, MO US","(38.75246, -90.37342)",162.0,38.77144,-90.37095,Hazelwood,Missouri,Saint Louis County,US
"WINCHESTER MUNICIPAL AIRPORT, TN US","(35.178, -86.066)",298.1,35.2098,-86.07943,Decherd,Tennessee,Franklin County,US
"DETROIT LAKES, MN US","(46.83333, -95.88333)",425.8,46.81718,-95.84533,Detroit Lakes,Minnesota,Becker County,US
"KEY WEST INTERNATIONAL AIRPORT, FL US","(24.55706, -81.75539)",0.3,24.56709,-81.73842,Stock Island,Florida,Monroe County,US
"WAUPACA MUNICIPAL AIRPORT, WI US","(44.33333, -89.01972)",251.8,44.35803,-89.08595,Waupaca,Wisconsin,Waupaca County,US
"ST. CLOUD REGIONAL AIRPORT, MN US","(45.54416, -94.0516)",310.2,45.5608,-94.16249,Saint Cloud,Minnesota,Stearns County,US
"BLIGH REEF LIGHT, AK US","(60.84, -146.88)",0.0,61.13083,-146.34833,Valdez,Alaska,Valdez-Cordova Census Area,US
"PILOT MOUND AUT, CA","(49.1833333, -98.9)",471.0,48.76,-98.36817,Langdon,North Dakota,Cavalier County,US
"SULPHUR SPRINGS MUNICIPAL AIRPORT, TX US","(33.16667, -95.61667)",149.0,33.13845,-95.60107,Sulphur Springs,Texas,Hopkins County,US
"N PIER DEATHS DOOR, WI US","(45.28, -86.98)",188.0,45.74525,-87.06458,Escanaba,Michigan,Delta County,US
"MILLEDGEVILLE BALDWIN CO AIRPORT, GA US","(33.15417, -83.24056)",117.0,33.08014,-83.2321,Milledgeville,Georgia,Baldwin County,US
"WEST MEMPHIS MUNICIPAL AIRPORT, AR US","(35.14013, -90.23591)",63.7,35.14648,-90.18454,West Memphis,Arkansas,Crittenden County,US
"GRNVL SPART INTERNATIONAL AIRPORT, SC US","(34.90614, -82.21253)",294.4,34.93873,-82.22706,Greer,South Carolina,Greenville County,US
"WHEELER ARMY AIR FIELD 810.1, HI US","(21.48722, -158.02806)",257.9,21.50279,-158.02464,Wahiawa,Hawaii,Honolulu County,US
"HUSLIA AIRPORT, AK US","(65.69778, -156.35139)",54.9,71.29058,-156.78872,Barrow,Alaska,North Slope Borough,US
"COURTLAND 2 WSW, AL US","(34.6602, -87.3462)",175.3,34.6812,-87.40613,Town Creek,Alabama,Lawrence County,US
"PUTNAM CO AIRPORT, OH US","(41.035583, -83.982025)",232.56,41.09838,-83.98467,Leipsic,Ohio,Putnam County,US
"CHERAW MUNICIPAL AIRPORT LYNCH BELLINGER FIELD, SC US","(34.717, -79.95)",73.2,34.69766,-79.8834,Cheraw,South Carolina,Chesterfield County,US
"GEORGE M BRYAN AIRPORT, MS US","(33.433, -88.849)",101.2,33.45049,-88.81961,Starkville,Mississippi,Oktibbeha County,US
"LINCOLN 11 SW, NE US","(40.6954, -96.8541)",418.2,40.62778,-96.96142,Crete,Nebraska,Saline County,US
"LEXINGTON DAVIDSON CO AIRPORT, NC US","(35.78111, -80.30361)",223.4,35.82403,-80.25338,Lexington,North Carolina,Davidson County,US
"APALACHICOLA RESERVE, FL US","(29.7833333, -84.8833333)",5.0,29.7366,-84.87852,Eastpoint,Florida,Franklin County,US
"BLYTHE ASOS, CA US","(33.61876, -114.71451)",120.4,33.60586,-114.73107,Mesa Verde,California,Riverside County,US
"WILKERSON PASS, CO US","(39.05, -105.516)",3438.1,38.74666,-105.17831,Cripple Creek,Colorado,Teller County,US
"WAKEFIELD MUNICIPAL AIRPORT, VA US","(36.98269, -77.00137)",32.0,37.03598,-77.09524,Waverly,Virginia,Sussex County,US
"LOS ANGELES INTERNATIONAL AIRPORT, CA US","(33.93816, -118.3866)",29.7,33.91613,-118.36952,Del Aire,California,Los Angeles County,US
"LAWTON MUNICIPAL AIRPORT, OK US","(34.55771, -98.4172)",326.0,34.60869,-98.39033,Lawton,Oklahoma,Comanche County,US
"NEWBERRY LUCE CO AIRPORT, MI US","(46.31111, -85.45722)",281.3,46.355,-85.50956,Newberry,Michigan,Luce County,US
"JASPER CO AIRPORT, IN US","(40.94782, -87.18264)",212.1,40.9367,-87.15086,Rensselaer,Indiana,Jasper County,US
"ST PETERSBURG, FL US","(27.75, -82.62)",10.0,27.77086,-82.67927,Saint Petersburg,Florida,Pinellas County,US
"GRAYSON CO AIRPORT SHERMAN DENISON, TX US","(33.71417, -96.67361)",228.3,33.75927,-96.66944,Pottsboro,Texas,Grayson County,US
"JACKSONVILLE INTERNATIONAL AIRPORT, FL US","(30.49529, -81.69374)",7.2,30.51111,-81.80925,Nassau Village-Ratliff,Florida,Nassau County,US
"HOUSTON INTERCONTINENTAL AIRPORT, TX US","(29.98438, -95.36072)",27.5,29.93245,-95.38021,Aldine,Texas,Harris County,US
"AURORA MUNICIPAL AIRPORT, NE US","(40.89306, -97.99722)",548.3,40.86723,-98.00422,Aurora,Nebraska,Hamilton County,US
"BAKER MUNICIPAL AIRPORT, MT US","(46.35205, -104.26134)",902.9,46.36695,-104.28466,Baker,Montana,Fallon County,US
"ONTONAGON, MI US","(46.8666666, -89.3333333)",186.0,46.87105,-89.31403,Ontonagon,Michigan,Ontonagon County,US
"ANDREWS MURPHY AIRPORT, NC US","(35.195, -83.86528)",516.9,35.20175,-83.82407,Andrews,North Carolina,Cherokee County,US
"FARMINGTON FOUR CORNERS REGIONAL AIRPORT, NM US","(36.74354, -108.22931)",1676.2,36.72806,-108.21869,Farmington,New Mexico,San Juan County,US
"CAPE NEWENHAM AFS, AK US","(58.65, -162.06667)",164.9,60.79222,-161.75583,Bethel,Alaska,Bethel Census Area,US
"JAMESTOWN 38 WSW, ND US","(46.7702, -99.4778)",585.2,46.50831,-99.77122,Napoleon,North Dakota,Logan County,US
"FLAGSTAFF AIRPORT, AZ US","(35.14427, -111.66637)",2133.3,35.09696,-111.69266,Kachina Village,Arizona,Coconino County,US
"RENO AIRPORT, NV US","(39.50769, -119.76829)",1342.5,39.53491,-119.75269,Sparks,Nevada,Washoe County,US
"CUSHING MUNICIPAL AIRPORT, OK US","(35.95, -96.77306)",279.2,35.98506,-96.76697,Cushing,Oklahoma,Payne County,US
"MIDDLE PENINSULA REGIONAL AIRPORT, VA US","(37.52111, -76.76472)",7.3,37.53153,-76.79635,West Point,Virginia,King William County,US
"SALLISAW MUNICIPAL AIRPORT, OK US","(35.43806, -94.80278)",160.9,35.46037,-94.78745,Sallisaw,Oklahoma,Sequoyah County,US
"GOLDEN TRIANGLE, MS US","(33.45, -88.58333)",80.5,33.49567,-88.42726,Columbus,Mississippi,Lowndes County,US
"NORTHWEST MISSOURI REGIONAL, MO US","(40.3525, -94.915)",350.52,40.3461,-94.87247,Maryville,Missouri,Nodaway County,US
"LOUISIANA REGIONAL AIRPORT, LA US","(30.17272, -90.94061)",4.6,30.23853,-90.9201,Gonzales,Louisiana,Ascension Parish,US
"WAUKESHA CO AIRPORT, WI US","(43.04083, -88.23694)",277.7,43.01168,-88.23148,Waukesha,Wisconsin,Waukesha County,US
"KICKAPOO DOWNTOWN AIRPORT, TX US","(33.85, -98.483)",304.2,33.91371,-98.49339,Wichita Falls,Texas,Wichita County,US
"KEY WEST, FL US","(24.55, -81.8)",7.0,24.5557,-81.78259,Key West,Florida,Monroe County,US
"PORTAGE CANAL, MI US","(47.27, -88.53)",198.0,47.23743,-88.44317,Laurium,Michigan,Houghton County,US
"SISSETON MUNICIPAL AIRPORT, SD US","(45.669018, -96.99183)",353.0,45.66468,-97.0498,Sisseton,South Dakota,Roberts County,US
"ALPINE CASPARIS MUNICIPAL AIRPORT, TX US","(30.38333, -103.68333)",1375.6,30.35862,-103.66206,Alpine,Texas,Brewster County,US
"DUCK KEY, FL US","(25.1833333, -80.4833333)",3.0,25.08652,-80.44728,Key Largo,Florida,Monroe County,US
"INDIAN MOUNTAIN AFS, AK US","(66.0, -153.7)",388.9,70.2175,-150.97639,Nuiqsut,Alaska,North Slope Borough,US
"BLOOMINGTON MONROE CO AIRPORT, IN US","(39.14317, -86.61676)",253.3,39.23393,-86.625,Ellettsville,Indiana,Monroe County,US
"TOGIAK, AK US","(59.06667, -160.36667)",6.1,59.03972,-158.4575,Dillingham,Alaska,Dillingham Census Area,US
"ISLIP LI MACARTHUR AIRPORT, NY US","(40.79389, -73.10181)",25.4,40.81538,-73.11233,Ronkonkoma,New York,Suffolk County,US
"FORT HUACHUCA SIERRA VISTA MUNICIPAL AIRPORT, AZ US","(31.58833, -110.34417)",1438.4,31.62787,-110.33397,Huachuca City,Arizona,Cochise County,US
"NORTHEAST PHILADELPHIA AIRPORT, PA US","(40.07892, -75.01336)",32.9,40.07678,-74.94878,Cornwells Heights,Pennsylvania,Bucks County,US
"ALLENTOWN LEHIGH VALLEY INTERNATIONAL AIRPORT, PA US","(40.64984, -75.44773)",117.4,40.65482,-75.47463,Catasauqua,Pennsylvania,Lehigh County,US
"SOUTH BEACH, OR US","(44.625, -124.043)",2.0,44.63678,-124.05345,Newport,Oregon,Lincoln County,US
"LONNIE POOL FIELD WEAVERVILLE AIRPORT, CA US","(40.747, -122.922)",716.3,40.73098,-122.94197,Weaverville,California,Trinity County,US
"MUSCLE SHOALS AIRPORT, AL US","(34.74388, -87.59971)",165.8,34.74481,-87.66753,Muscle Shoals,Alabama,Colbert County,US
"PRICE CARBON CO AIRPORT, UT US","(39.60886, -110.75547)",1777.2,39.59941,-110.81071,Price,Utah,Carbon County,US
"PINE RIDGE AIRPORT, SD US","(43.02614, -102.52001)",1002.0,43.02554,-102.55627,Pine Ridge,South Dakota,Shannon County,US
"BEAVER ISLAND AIRPORT, MI US","(45.68889, -85.56611)",203.0,45.31806,-85.2584,Charlevoix,Michigan,Charlevoix County,US
"ADRIAN LENAWEE CO AIRPORT, MI US","(41.86784, -84.07946)",244.1,41.89755,-84.03717,Adrian,Michigan,Lenawee County,US
"PETERSBURG 1, AK US","(56.8055, -132.9372)",32.6,56.8125,-132.95556,Petersburg,Alaska,Wrangell-Petersburg Census Area,US
"LADYSMITH RUSK CO AIRPORT, WI US","(45.49694, -91.00056)",377.3,45.46302,-91.10404,Ladysmith,Wisconsin,Rusk County,US
"RED DOG MINE 3 SSW, AK US","(68.0277, -162.9212)",287.1,66.89846,-162.59809,Kotzebue,Alaska,Northwest Arctic Borough,US
"FALL RIVER, MA US","(41.7, -71.0)",10.0,41.63899,-70.99115,Smith Mills,Massachusetts,Bristol County,US
"ANCHORAGE WFO, AK US","(61.15, -149.9833333)",40.0,61.21806,-149.90028,Anchorage,Alaska,Anchorage Municipality,US
"TIPTON, MD US","(39.085386, -76.759414)",45.72,39.10815,-76.74323,Fort Meade,Maryland,Anne Arundel County,US
"J DOUGLAS BAKE MEMORIAL AIRPORT, WI US","(44.87405, -87.90977)",184.4,44.88721,-87.86455,Oconto,Wisconsin,Oconto County,US
"OAKLEY MUNICIPAL, KS US","(39.109944, -100.816444)",928.11,39.13334,-100.86376,Oakley,Kansas,Logan County,US
"IDABEL MCCURTAIN CO REGIONAL AIRPORT, OK US","(33.90944, -94.85944)",143.9,33.89566,-94.82633,Idabel,Oklahoma,McCurtain County,US
"COLDWATER BRANCH CO MEMORIAL AIRPORT, MI US","(41.93333, -85.0525)",292.3,41.94033,-85.00052,Coldwater,Michigan,Branch County,US
